,COLLEGE_ID,NAME,CITY,STATE,URL,LATITUDE,LONGITUDE,DISTANCEONLY,DEGREE,SUBJECT1,SUBJECT2,SUBJECT3,SUBJECT4,SUBJECT5,SUBJECT6,ADMISSION_RATE,COST_ACADEMIC_YEAR,COST_PROGRAM_YEAR,UG_STUDENTS_ENROLLED,STUDENTS_FED_LOANS_PERCENT,STUDENTS_FED_PELL_GRANTS_PERCENT,MONTH_DEBT_AFTER_GRAD,MONTH_DEBT_AFTER_GRAD,MONTH_DEBT_AFTER_10YRS,GRAD_WITHIN_EXPECTED_TIME_4YRS,GRAD_WITHIN_EXPECTED_TIME_LESS_4YRS,MEAN_EARNING_BEFORE_ENROLLMENT,LOAN_REPAY_AFTER_3YRS_PERCENT
0,100654,Alabama A & M University,Normal,AL,www.aamu.edu/,34.783367999999996,-86.568502,0.0,3,,,,,,,0.9027,22886.0,,4824.0,0.7697,0.71,32750,32750,348.16551225731,0.0381,,31000,0.2531554273
1,100663,University of Alabama at Birmingham,Birmingham,AL,www.uab.edu,33.505697,-86.799345,0.0,3,,,,,,,0.9181,24129.0,,12866.0,0.5207,0.3532,21833,21833,232.106797835537,0.3179,,41200,0.513963161
2,100690,Amridge University,Montgomery,AL,www.amridgeuniversity.edu,32.362609,-86.17401,1.0,3,,,,,,,,15080.0,,322.0,0.8741,0.7415,22890,22890,243.343773299842,0.0,,39600,0.2307692308
3,100706,University of Alabama in Huntsville,Huntsville,AL,www.uah.edu,34.724557,-86.640449,0.0,3,,,,,,,0.8123,22108.0,,6917.0,0.4278,0.2765,22647,22647,240.760438353933,0.22699999999999998,,46700,0.5485090298
4,100724,Alabama State University,Montgomery,AL,www.alasu.edu,32.364317,-86.295677,0.0,3,,,,,,,0.9787,19413.0,,4189.0,0.769,0.7377,31500,31500,334.876752247489,0.1129,,27700,0.2185867473
5,100751,The University of Alabama,Tuscaloosa,AL,www.ua.edu/,33.211875,-87.545978,0.0,3,,,,,,,0.5329999999999999,28836.0,,32387.0,0.3878,0.18,23290,23290,247.596176502985,0.4404,,44500,0.6019442985
6,100760,Central Alabama Community College,Alexander City,AL,www.cacc.edu,32.92478,-85.945266,0.0,2,,,,,,,,10045.0,,1404.0,0.27699999999999997,0.4792,9500,9500,100.994576074639,,0.1856,27700,0.2510056315
7,100812,Athens State University,Athens,AL,www.athens.edu,34.806793,-86.964698,0.0,3,,,,,,,,,,2801.0,0.6612,0.4456,18000,18000,191.358144141422,,,38700,0.5038167939
8,100830,Auburn University at Montgomery,Montgomery,AL,www.aum.edu,32.36736,-86.177544,0.0,3,,,,,,,0.8254,19892.0,,4211.0,0.5769,0.4416,23363,23363,248.372240087558,0.08800000000000001,,33300,0.4418886199
9,100858,Auburn University,Auburn,AL,www.auburn.edu,32.599378,-85.488258,0.0,3,,,,,,,0.8393,30458.0,,23391.0,0.3198,0.1489,21500,21500,228.566672168921,0.4906,,48800,0.7239612977
10,100937,Birmingham Southern College,Birmingham,AL,www.bsc.edu/,33.513774,-86.85055200000001,0.0,3,,,,,,,0.6186,50440.0,,1283.0,0.4467,0.1917,26045,26045,276.88460356463,0.5776,,46700,0.7559912854
11,101028,Chattahoochee Valley Community College,Phenix City,AL,www.cv.edu,32.42391,-85.031485,0.0,2,,,,,,,,6854.0,,1370.0,0.2271,0.5379999999999999,10500,10500,111.625584082496,,0.1157,28900,0.28125
13,101116,South University-Montgomery,Montgomery,AL,"www.southuniversity.edu/montgomery#location=Montgomery,%20AL",32.342684000000006,-86.216488,0.0,3,,,,,,,,26613.0,,369.0,0.6726,0.7208,25000,25000,265.77520019642,0.0,,33400,0.2547585843
14,101143,Enterprise State Community College,Enterprise,AL,www.escc.edu,31.297496000000002,-85.836956,0.0,2,,,,,,,,9289.0,,1365.0,0.1647,0.41200000000000003,6676,6676,70.9726094604521,,0.1076,31800,0.4260416667
15,101161,Coastal Alabama Community College,Bay Minette,AL,www.coastalalabama.edu,30.851343,-87.778193,0.0,2,,,,,,,,12323.0,,4101.0,0.4446,0.4009,11000,11000,116.941088086425,,0.0176,29100,0.3489905233
16,101189,Faulkner University,Montgomery,AL,www.faulkner.edu,32.384181,-86.21641,0.0,3,,,,,,,0.5101,31720.0,,2272.0,0.6469,0.5091,22850,22850,242.918532979528,0.1173,,35400,0.3081623745
17,101240,Gadsden State Community College,Gadsden,AL,www.gadsdenstate.edu,33.994001000000004,-85.991438,0.0,1,,,,,,,,9701.0,,4349.0,0.0,0.4999,PrivacySuppressed,PrivacySuppressed,PrivacySuppressed,,0.0948,26700,
18,101277,New Beginning College of Cosmetology,Albertville,AL,www.nbccosmetology.com,34.27871,-86.196931,0.0,1,Cosmetology/Cosmetologist General,Cosmetology Barber/Styling and Nail Instructor,,,,,,,13543.0,83.0,0.3305,0.8136,5900,5900,62.7229472463552,,0.4138,,0.4205607477
19,101286,George C Wallace Community College-Dothan,Dothan,AL,www.wallace.edu,31.315274,-85.465836,0.0,2,,,,,,,,9298.0,,3836.0,0.0,0.5113,PrivacySuppressed,PrivacySuppressed,PrivacySuppressed,,0.1158,24700,
20,101295,George C Wallace State Community College-Hanceville,Hanceville,AL,www.wallacestate.edu,34.072439,-86.781935,0.0,2,,,,,,,,10610.0,,4805.0,0.3243,0.4567,10500,10500,111.625584082496,,0.1415,32200,0.4397394137
21,101301,George C Wallace State Community College-Selma,Selma,AL,www.wccs.edu,32.445917,-87.01329399999999,0.0,2,,,,,,,,14571.0,,1217.0,0.0,0.6887,PrivacySuppressed,PrivacySuppressed,PrivacySuppressed,,0.0261,23300,
22,101365,Herzing University-Birmingham,Birmingham,AL,https://www.herzing.edu/,33.468466,-86.832465,0.0,1,,,,,,,0.757,27797.0,,537.0,0.7692,0.6154,23139.5,23139.5,245.996209797802,0.25,,37800,0.3041105434
23,101435,Huntingdon College,Montgomery,AL,www.huntingdon.edu,32.351034000000006,-86.284366,0.0,3,,,,,,,0.5598,34675.0,,1099.0,0.7064,0.4312,27000,27000,287.037216212134,0.2656,,39900,0.5146036161
24,101453,Heritage Christian University,Florence,AL,www.hcu.edu,34.856153000000006,-87.663051,0.0,3,,,,,,,1.0,,,59.0,0.2,0.6,PrivacySuppressed,PrivacySuppressed,PrivacySuppressed,0.0,,PrivacySuppressed,PrivacySuppressed
25,101462,J. F. Drake State Community and Technical College,Huntsville,AL,www.drakestate.edu,34.771858,-86.572885,0.0,1,,,,,,,,11514.0,,685.0,0.0,0.6526,PrivacySuppressed,PrivacySuppressed,PrivacySuppressed,,0.0897,23800,
26,101471,J F Ingram State Technical College,Deatsville,AL,www.istc.edu,32.582312,-86.39236899999999,0.0,1,,,,,,,,5496.0,,449.0,0.0,0.1323,PrivacySuppressed,PrivacySuppressed,PrivacySuppressed,,0.3534,,
27,101480,Jacksonville State University,Jacksonville,AL,www.jsu.edu/,33.822938,-85.765321,0.0,3,,,,,,,0.5402,20890.0,,6622.0,0.6466,0.3785,23500,23500,249.828688184635,0.1445,,35800,0.4210392257
28,101499,Jefferson Davis Community College,Brewton,AL,www.coastalalabama.edu,31.101253999999997,-87.08534,0.0,2,,,,,,,,11607.0,,720.0,0.0,0.513,PrivacySuppressed,PrivacySuppressed,PrivacySuppressed,,0.2047,26200,
29,101505,Jefferson State Community College,Birmingham,AL,www.jeffersonstate.edu/,33.652535,-86.707233,0.0,2,,,,,,,,13017.0,,7052.0,0.1889,0.2803,7368,7368,78.329267001889,,0.0456,30600,0.4485852312
30,101514,John C Calhoun State Community College,Tanner,AL,https://calhoun.edu/,34.645844,-86.949674,0.0,2,,,,,,,,9907.0,,8247.0,0.2379,0.331,10592.5,10592.5,112.608952323223,,0.1509,28000,0.38055344
31,101541,Judson College,Marion,AL,www.judson.edu,32.629253000000006,-87.315206,0.0,3,,,,,,,0.507,30456.0,,315.0,0.6626,0.5644,21744,21744,231.160638122838,0.2667,,26100,0.4702970297
32,101569,Lawson State Community College,Birmingham,AL,www.lawsonstate.edu,33.450814,-86.88884399999999,0.0,1,,,,,,,,13685.0,,3034.0,0.0,0.6717,PrivacySuppressed,PrivacySuppressed,PrivacySuppressed,,0.1032,23400,
33,101587,University of West Alabama,Livingston,AL,www.uwa.edu,32.588132,-88.186329,0.0,3,,,,,,,0.2821,19671.0,,2106.0,0.6461,0.5308,26500,26500,281.721712208205,0.1804,,37400,0.3667296786
34,101602,Lurleen B Wallace Community College,Andalusia,AL,https://www.lbwcc.edu,31.322946999999996,-86.452262,0.0,2,,,,,,,,13663.0,,1354.0,0.0,0.5178,PrivacySuppressed,PrivacySuppressed,PrivacySuppressed,,0.222,26500,
35,101648,Marion Military Institute,Marion,AL,www.marionmilitary.edu,32.623734000000006,-87.322041,0.0,2,,,,,,,0.5587,18568.0,,444.0,0.4706,0.4118,11500,11500,122.256592090353,,0.3116,42700,0.5924657534
36,101675,Miles College,Fairfield,AL,www.miles.edu,33.482442,-86.908751,0.0,3,,,,,,,,22346.0,,1647.0,0.9253,0.8484,33754.5,33754.5,358.844359801202,0.0701,,26500,0.149776928
37,101693,University of Mobile,Mobile,AL,www.umobile.edu,30.793246999999997,-88.128934,0.0,3,,,,,,,0.4702,35256.0,,1276.0,0.7616,0.4666,26579.5,26579.5,282.56687734483,0.2458,,35200,0.4438722966
38,101709,University of Montevallo,Montevallo,AL,www.montevallo.edu,33.10625,-86.865099,0.0,3,,,,,,,0.6445,23938.0,,2329.0,0.5791,0.3881,24264,24264,257.950778302637,0.2636,,34200,0.5173333333
39,101736,Northwest-Shoals Community College,Muscle Shoals,AL,https://www.nwscc.edu,34.739788,-87.678089,0.0,2,,,,,,,,11386.0,,2698.0,0.2481,0.4622,13000,13000,138.203104102138,,0.1372,25600,0.3611312545
40,101879,University of North Alabama,Florence,AL,www.una.edu,34.806738,-87.681361,0.0,3,,,,,,,0.7022,18223.0,,5771.0,0.7101,0.4034,22309,22309,237.167157647277,0.1987,,37800,0.516271595
41,101897,Northeast Alabama Community College,Rainsville,AL,https://www.nacc.edu,34.545471,-85.911664,0.0,1,,,,,,,,8350.0,,1983.0,0.0,0.4979,4000,4000,42.5240320314272,,0.1873,27900,0.4630102041
42,101912,Oakwood University,Huntsville,AL,https://www2.oakwood.edu,34.756344,-86.65270500000001,0.0,3,,,,,,,0.4707,35547.0,,1623.0,0.7273,0.5268,31000,31000,329.561248243561,0.2376,,29700,0.2837301587
43,101949,Alabama Southern Community College,Monroeville,AL,www.coastalalabama.edu,31.488925,-87.326352,0.0,2,,,,,,,,10913.0,,765.0,0.0,0.5029,PrivacySuppressed,PrivacySuppressed,PrivacySuppressed,,0.303,25500,
44,101994,Reid State Technical College,Evergreen,AL,www.rstc.edu,31.460265000000003,-86.96479699999999,0.0,1,,,,,,,,8804.0,,285.0,0.0,0.5419,PrivacySuppressed,PrivacySuppressed,PrivacySuppressed,,0.1519,22000,
45,102030,Bishop State Community College,Mobile,AL,www.bishop.edu,30.693972,-88.05698199999999,0.0,1,,,,,,,,10349.0,,2623.0,0.0,0.5776,PrivacySuppressed,PrivacySuppressed,PrivacySuppressed,,0.1067,22800,
46,102049,Samford University,Birmingham,AL,www.samford.edu,33.464128,-86.791799,0.0,3,,,,,,,0.8319,44896.0,,3364.0,0.3245,0.114,20702,20702,220.083127778651,0.6509999999999999,,49900,0.7767548907
47,102058,Selma University,Selma,AL,selmauniversity.edu,32.420387,-87.032392,0.0,3,,,,,,,,15022.0,,311.0,0.9295,0.9615,PrivacySuppressed,PrivacySuppressed,PrivacySuppressed,0.0091,,PrivacySuppressed,0.1179361179
48,102067,Shelton State Community College,Tuscaloosa,AL,www.sheltonstate.edu,33.120531,-87.56148,0.0,2,,,,,,,,11414.0,,4230.0,0.0,0.4474,PrivacySuppressed,PrivacySuppressed,PrivacySuppressed,,0.0682,27100,
49,102076,Snead State Community College,Boaz,AL,www.snead.edu,34.201495,-86.16989699999999,0.0,2,,,,,,,,10704.0,,1891.0,0.24600000000000002,0.5011,6000,6000,63.7860480471409,,0.3112,27800,0.3530701754
50,102094,University of South Alabama,Mobile,AL,www.southalabama.edu,30.696033,-88.17871099999999,0.0,3,,,,,,,0.8208,19702.0,,10712.0,0.5335,0.3723,24761,24761,263.234389282542,0.1873,,37800,0.4695919938
51,102234,Spring Hill College,Mobile,AL,www.shc.edu,30.694751,-88.138199,0.0,3,,,,,,,0.4568,50954.0,,1375.0,0.7581,0.2998,PrivacySuppressed,PrivacySuppressed,PrivacySuppressed,0.4358,,45100,0.6072013093
52,102270,Stillman College,Tuscaloosa,AL,https://stillman.edu,33.200006,-87.585278,0.0,3,,,,,,,0.4812,19803.0,,633.0,0.8631,0.7643,33500,33500,356.138768263203,0.1963,,28200,0.2526595745
53,102298,Talladega College,Talladega,AL,www.talladega.edu,33.433471999999995,-86.11270400000001,0.0,3,,,,,,,,22314.0,,782.0,0.9704,0.9259,31000,31000,329.561248243561,0.2311,,21900,0.1789181692
54,102313,H Councill Trenholm State Community College,Montgomery,AL,www.trenholmstate.edu,32.350109,-86.343057,0.0,1,,,,,,,,11798.0,,1610.0,0.0,0.46,PrivacySuppressed,PrivacySuppressed,PrivacySuppressed,,0.2096,23100,
55,102368,Troy University,Troy,AL,www.troy.edu,31.800672,-85.957094,0.0,3,,,,,,,0.8812,18585.0,,13634.0,0.6182,0.4011,25000,25000,265.77520019642,0.1931,,37000,0.3498531898
56,102377,Tuskegee University,Tuskegee,AL,www.tuskegee.edu,32.4309,-85.708492,0.0,3,,,,,,,0.5032,36673.0,,2833.0,0.652,0.0568,32500,32500,345.507760255346,0.2802,,35500,0.4960173787
57,102395,United States Sports Academy,Daphne,AL,www.ussa.edu,30.639328999999996,-87.91163,0.0,3,,,,,,,,,,88.0,0.4267,0.3333,PrivacySuppressed,PrivacySuppressed,PrivacySuppressed,,,PrivacySuppressed,0.4436090226
58,102429,Bevill State Community College,Jasper,AL,www.bscc.edu,33.836929,-87.266406,0.0,2,,,,,,,,13164.0,,3029.0,0.0,0.4764,PrivacySuppressed,PrivacySuppressed,PrivacySuppressed,,0.111,28100,
59,102553,University of Alaska Anchorage,Anchorage,AK,www.uaa.alaska.edu,61.190163,-149.82619,0.0,3,,,,,,,0.8283,19126.0,,11332.0,0.2311,0.2161,17833.5,17833.5,189.588081308114,0.083,,45400,0.5477396726
60,102580,Alaska Bible College,Palmer,AK,www.akbible.edu/,61.598553,-149.111972,0.0,3,,,,,,,,19260.0,,31.0,0.275,0.3,PrivacySuppressed,PrivacySuppressed,PrivacySuppressed,0.0,,,PrivacySuppressed
61,102614,University of Alaska Fairbanks,Fairbanks,AK,www.uaf.edu,64.85755999999999,-147.823146,0.0,3,,,,,,,0.767,17168.0,,4910.0,0.2247,0.2037,15000,15000,159.465120117852,0.2042,,38700,0.547265987
62,102632,University of Alaska Southeast,Juneau,AK,www.uas.alaska.edu,58.384845999999996,-134.63825500000002,0.0,3,,,,,,,0.7105,17286.0,,1214.0,0.1796,0.1769,16000,16000,170.096128125709,0.0957,,36000,0.5768645358
63,102669,Alaska Pacific University,Anchorage,AK,www.alaskapacific.edu,61.190968000000005,-149.804168,0.0,3,,,,,,,0.86,32489.0,,247.0,0.4832,0.3054,19500,19500,207.304656153207,0.4706,,40200,0.5701357466
64,102711,AVTEC-Alaska's Institute of Technology,Seward,AK,www.avtec.edu/,60.110626,-149.444487,0.0,1,Industrial Electronics Technology/Technician,Welding Technology/Welder,Diesel Mechanics Technology/Technician,Administrative Assistant and Secretarial Science General,Information Science/Studies,Restaurant Culinary and Catering Management/Manager,,,12117.0,967.0,0.0611,0.0445,5498.5,5498.5,58.4545975312007,,0.9009999999999999,35300,0.686440678
65,102845,Charter College,Vancouver,WA,www.chartercollege.edu,45.617798,-122.494766,0.0,1,,,,,,,,35332.0,,2640.0,0.6648,0.5872,14875,14875,158.13624411687,0.0022,,39800,0.3047679059
66,103501,Alaska Career College,Anchorage,AK,www.alaskacareercollege.edu,61.181443,-149.856954,0.0,1,Medical/Clinical Assistant,Massage Therapy/Therapeutic Massage,Phlebotomy Technician/Phlebotomist,Medical Insurance Coding Specialist/Coder,Business Administration Management and Operations Other,Accounting and Business/Management,,,22978.0,430.0,0.7645,0.7017,8437,8437,89.6938145622879,,0.6903,31200,0.4457236842
67,103741,Empire Beauty School-Tucson,Tucson,AZ,www.empire.edu,32.235657,-110.92718700000002,0.0,1,Cosmetology/Cosmetologist General,Cosmetology Barber/Styling and Nail Instructor,,,,,,,18323.0,118.0,0.6927,0.7486,11766,11766,125.084440220443,,0.0,20300,0.2879914984
70,103893,Carrington College-Phoenix North,Phoenix,AZ,https://carrington.edu/,33.561689,-112.116105,0.0,1,Medical/Clinical Assistant,Dental Assisting/Assistant,Veterinary/Animal Health Technology/Technician and Veterinary Assistant,Medical Insurance Specialist/Medical Biller,Health and Wellness General,Security and Loss Prevention Services,0.7062,,23419.0,519.0,0.4833,0.7019,9500,9500,100.994576074639,,0.1866,25400,0.3293361884
71,103909,Carrington College-Mesa,Mesa,AZ,https://carrington.edu/,33.39248,-111.853218,0.0,1,Medical/Clinical Assistant,Dental Assisting/Assistant,Veterinary/Animal Health Technology/Technician and Veterinary Assistant,Dental Hygiene/Hygienist,Medical Insurance Specialist/Medical Biller,Rehabilitation Aide,0.5529999999999999,,23430.0,500.0,0.5453,0.6369,9500,9500,100.994576074639,,0.2512,25400,0.3293361884
72,103927,Carrington College-Tucson,Tucson,AZ,https://carrington.edu/,32.224391,-110.983056,0.0,1,Medical/Clinical Assistant,Veterinary/Animal Health Technology/Technician and Veterinary Assistant,Dental Assisting/Assistant,Rehabilitation Aide,Pharmacy Technician/Assistant,Medical Insurance Specialist/Medical Biller,0.9451,,23000.0,269.0,0.5242,0.7742,9500,9500,100.994576074639,,0.1887,25400,0.3293361884
73,103945,CollegeAmerica-Flagstaff,Flagstaff,AZ,www.collegeamerica.edu,35.194495,-111.657673,0.0,2,,,,,,,,31920.0,,78.0,0.7921,0.7822,25732,25732,273.557098058171,0.1818,,23900,0.1169102296
74,103954,Arizona Academy of Beauty-East,Tucson,AZ,www.arizonaacademy.com,32.237253,-110.87230500000001,0.0,1,Cosmetology/Cosmetologist General,Nail Technician/Specialist and Manicurist,Cosmetology Barber/Styling and Nail Instructor,,,,,,16184.0,54.0,0.5462,0.6692,4942.5,4942.5,52.5437570788323,,0.5455,15300,0.2535211268
75,103963,Platt College-Arizona Automotive Institute Arizona,Glendale,AZ,www.aai.edu,33.537248999999996,-112.157344,0.0,1,Welding Technology/Welder,Automobile/Automotive Mechanics Technology/Technician,Diesel Mechanics Technology/Technician,Heating Air Conditioning Ventilation and Refrigeration Maintenance Technology/Technician,,,,,34050.0,785.0,0.7637,0.7958,11332,11332,120.470582745033,,0.5463,35300,0.3413775767
76,104090,Brookline College-Phoenix,Phoenix,AZ,www.brooklinecollege.edu,33.566102,-112.112473,0.0,1,Registered Nursing/Registered Nurse,Medical Insurance Coding Specialist/Coder,Pharmacy Technician/Assistant,Medical/Clinical Assistant,Nursing Education,Nursing Assistant/Aide and Patient Care Assistant/Aide,,,35472.0,1056.0,0.6357,0.5653,9500,9500,100.994576074639,0.2865,,21900,0.2092039801
77,104151,Arizona State University-Tempe,Tempe,AZ,www.asu.edu/,33.417721,-111.93438300000001,0.0,3,,,,,,,0.8415,24353.0,,42181.0,0.3875,0.2928,20000,20000,212.620160157136,0.4548,,47700,0.5848558828
78,104160,Arizona Western College,Yuma,AZ,www.azwestern.edu,32.689306,-114.49596799999999,0.0,1,,,,,,,,14774.0,,6879.0,0.0246,0.5125,4925,4925,52.3577144386948,,0.0882,27700,0.3570451436
79,104179,University of Arizona,Tucson,AZ,www.arizona.edu,32.232671999999994,-110.95081499999999,0.0,3,,,,,,,0.8358,26157.0,,33428.0,0.392,0.2935,19000,19000,201.989152149279,0.4512,,47300,0.6562777285
80,104188,Southwest University of Visual Arts-Tucson,Tucson,AZ,www.suva.edu,32.252879,-110.92726499999999,0.0,3,,,,,,,,31146.0,,125.0,0.9242,0.9091,51488.5,51488.5,547.374655812535,0.5833,,30200,0.3382899628
81,104346,Central Arizona College,Coolidge,AZ,www.centralaz.edu,32.957091999999996,-111.652501,0.0,1,,,,,,,,10643.0,,4822.0,0.1237,0.4292,8584,8584,91.2565727394429,,0.153,26500,0.2935548842
83,104391,Charles of Italy Beauty College,Lake Havasu City,AZ,www.charlesofitaly.edu,34.477484999999994,-114.33268600000001,0.0,1,Cosmetology/Cosmetologist General,Massage Therapy/Therapeutic Massage,Cosmetology and Related Personal Grooming Arts Other,Technical Teacher Education,,,,,14074.0,51.0,0.6154,0.6264,7612,7612,80.923232955806,,0.2667,16100,0.4418604651
84,104425,Cochise County Community College District,Sierra Vista,AZ,https://www.cochise.edu,31.564596999999996,-110.246946,0.0,2,,,,,,,,10987.0,,3528.0,0.0679,0.3549,6835.5,6835.5,72.6682552377052,,0.1519,28500,0.4121863799
85,104434,Empire Beauty School-Flagstaff,Flagstaff,AZ,www.empire.edu,35.197151,-111.62593600000001,0.0,1,Cosmetology/Cosmetologist General,,,,,,,,18196.0,37.0,0.6552,0.7069,11526,11526,122.532998298557,,0.0,18500,0.2978723404
86,104443,Empire Beauty School-Chandler,Chandler,AZ,www.empire.edu,33.347586,-111.860423,0.0,1,Cosmetology/Cosmetologist General,Cosmetology Barber/Styling and Nail Instructor,,,,,,,17569.0,66.0,0.6981,0.7547,11526,11526,122.532998298557,,0.0,18500,0.2978723404
88,104568,Avalon School of Cosmetology-Mesa,Mesa,AZ,avalon.edu/locations/mesa-az/,33.376583000000004,-111.858305,0.0,1,Cosmetology/Cosmetologist General,Aesthetician/Esthetician and Skin Care Specialist,Cosmetology Barber/Styling and Nail Instructor,,,,,,17138.0,298.0,0.547,0.5741,7442,7442,79.1159615944704,,0.6309,19000,0.3393708294
89,104577,Eastern Arizona College,Thatcher,AZ,www.eac.edu,32.843664000000004,-109.76234,0.0,1,,,,,,,,13128.0,,3729.0,0.0,0.1918,PrivacySuppressed,PrivacySuppressed,PrivacySuppressed,,0.2692,29200,PrivacySuppressed
90,104586,Embry-Riddle Aeronautical University-Prescott,Prescott,AZ,prescott.erau.edu/,34.616766,-112.44974099999999,0.0,3,,,,,,,0.7652,49912.0,,2598.0,0.4775,0.2411,24250,24250,257.801944190527,0.3209,,66200,0.6444394213
91,104665,School of Architecture at Taliesin,Scottsdale,AZ,www.taliesin.edu,33.607096999999996,-111.84541100000001,0.0,4,,,,,,,,,,,,,PrivacySuppressed,PrivacySuppressed,PrivacySuppressed,,,,PrivacySuppressed
92,104708,Glendale Community College,Glendale,AZ,www.gccaz.edu,33.570226,-112.190735,0.0,1,,,,,,,,11472.0,,14609.0,0.1267,0.3388,6750,6750,71.7593040530335,,0.0737,34500,0.3519480519
93,104717,Grand Canyon University,Phoenix,AZ,www.gcu.edu,33.513231,-112.129929,0.0,3,,,,,,,0.6692,31051.0,,48666.0,0.5831,0.445,18750,18750,199.331400147315,0.3519,,52700,0.3519825032
94,105145,GateWay Community College,Phoenix,AZ,www.gatewaycc.edu,33.449686,-111.997077,0.0,1,,,,,,,,12967.0,,4365.0,0.1977,0.3511,9182,9182,97.6139155281413,,0.0993,34100,0.3201856148
95,105154,Mesa Community College,Mesa,AZ,www.mesacc.edu,33.390322999999995,-111.871255,0.0,2,,,,,,,,12302.0,,15759.0,0.1564,0.2905,7741.5,7741.5,82.2999484928235,,0.0757,36000,0.3394398821
96,105206,Mohave Community College,Kingman,AZ,https://www.mohave.edu,35.270996000000004,-114.02983799999998,0.0,2,,,,,,,,12394.0,,2875.0,0.1272,0.3823,12750,12750,135.545352100174,,0.1349,27500,0.3657243816
97,105215,Universal Technical Institute of Arizona Inc-Motorcycle Mechanics Institute Division,Phoenix,AZ,www.uti.edu/,33.684428000000004,-112.12133600000001,0.0,1,Motorcycle Maintenance and Repair Technology/Technician,Motorcycle Maintenance and Repair Technology/Technician,Motorcycle Maintenance and Repair Technology/Technician,Motorcycle Maintenance and Repair Technology/Technician,Motorcycle Maintenance and Repair Technology/Technician,Motorcycle Maintenance and Repair Technology/Technician,,,21464.0,1020.0,0.5178,0.4205,15838,15838,168.373904828436,,0.3937,38700,0.410058855
98,105297,Dine College,Tsaile,AZ,https://www.dinecollege.edu,36.293328,-109.21683999999999,0.0,2,,,,,,,,11872.0,,1363.0,0.0,0.5745,PrivacySuppressed,PrivacySuppressed,PrivacySuppressed,,,21000,
99,105330,Northern Arizona University,Flagstaff,AZ,https://nau.edu/,35.188449,-111.653724,0.0,3,,,,,,,0.8085,26314.0,,26974.0,0.469,0.3462,19500,19500,207.304656153207,0.4032,,40100,0.5577914855
100,105349,Northland Pioneer College,Holbrook,AZ,www.npc.edu,34.93031,-110.142199,0.0,1,,,,,,,,13336.0,,1453.0,0.0,0.2441,PrivacySuppressed,PrivacySuppressed,PrivacySuppressed,,0.1528,25200,
101,105367,Ottawa University-Phoenix,Phoenix,AZ,www.ottawa.edu,33.572173,-112.113001,0.0,3,,,,,,,,,,329.0,0.5967,0.5333,21257,21257,225.983337223012,,,41500,0.4652137469
102,105428,Phoenix College,Phoenix,AZ,www.phoenixcollege.edu,33.481361,-112.088293,0.0,2,,,,,,,,11788.0,,9147.0,0.1669,0.3863,9521,9521,101.217827242804,,0.0943,31900,0.2458264539
104,105525,Pima Community College,Tucson,AZ,www.pima.edu,32.222125,-110.88665900000001,0.0,1,,,,,,,,9141.0,,20165.0,0.0983,0.3004,6500,6500,69.1015520510693,,0.0752,30900,0.3578495184
105,105534,Pima Medical Institute-Tucson,Tucson,AZ,pmi.edu,32.2502,-110.921301,0.0,1,Medical/Clinical Assistant,Health/Health Care Administration/Management,Radiologic Technology/Science - Radiographer,Respiratory Care Therapy/Therapist,Radiologic Technology/Science - Radiographer,Veterinary/Animal Health Technology/Technician and Veterinary Assistant,,,25397.0,2300.0,0.6358,0.4836,8708,8708,92.5748177324171,0.73,,28800,0.4626200015
106,105543,Pima Medical Institute-Albuquerque,Albuquerque,NM,pmi.edu,35.104855,-106.59488,0.0,1,Medical/Clinical Assistant,Radiologic Technology/Science - Radiographer,Dental Assisting/Assistant,Respiratory Care Therapy/Therapist,Physical Therapy Technician/Assistant,Veterinary/Animal Health Technology/Technician and Veterinary Assistant,,,22266.0,820.0,0.7329,0.6461,8708,8708,92.5748177324171,,0.3663,28800,0.4626200015
107,105589,Prescott College,Prescott,AZ,www.prescott.edu,34.5452,-112.477185,0.0,3,,,,,,,0.9526,38807.0,,350.0,0.6189,0.4642,19208.5,19208.5,204.205717318917,0.0161,,33200,0.525390625
108,105659,Refrigeration School Inc,Phoenix,AZ,https://www.refrigerationschool.com,33.448692,-111.98935700000001,0.0,1,Electromechanical Technology/Electromechanical Engineering Technology,Heating Ventilation Air Conditioning and Refrigeration Engineering Technology/Technician,Energy Management and Systems Technology/Technician,Electrician,,,,,26842.0,732.0,0.6631,0.6356,11612,11612,123.447264987233,,0.47600000000000003,41500,0.3662131519
109,105668,Rio Salado College,Tempe,AZ,www.rio.maricopa.edu,33.413309000000005,-111.97417,0.0,1,,,,,,,,10784.0,,6086.0,0.1143,0.14300000000000002,7560,7560,80.3704205393975,,0.0973,39500,0.2287994387
110,105677,Roberto-Venn School of Luthiery,Phoenix,AZ,www.roberto-venn.com,33.45489,-112.086161,0.0,1,Musical Instrument Fabrication and Repair,,,,,,,,24075.0,24.0,0.4068,0.2881,PrivacySuppressed,PrivacySuppressed,PrivacySuppressed,,0.7143,24000,0.5769230769
112,105747,Scottsdale Community College,Scottsdale,AZ,www.scottsdalecc.edu,33.51135,-111.885186,0.0,2,,,,,,,,11892.0,,6025.0,0.1105,0.179,7207,7207,76.617674712624,,0.0956,35600,0.388720027
113,105792,South Mountain Community College,Phoenix,AZ,www.southmountaincc.edu,33.382406,-112.03263500000001,0.0,2,,,,,,,,11292.0,,3167.0,0.1471,0.4243,8575,8575,91.1608936673722,,0.1231,30200,0.2157534247
114,105899,Arizona Christian University,Phoenix,AZ,www.arizonachristian.edu,33.595117,-112.026211,0.0,3,,,,,,,0.6444,37675.0,,696.0,0.5902,0.3439,18850,18850,200.394500948101,0.4286,,32200,0.5551470588
115,106041,Universal Technical Institute of Arizona Inc,Avondale,AZ,www.uti.edu,33.453005,-112.288123,0.0,2,Automobile/Automotive Mechanics Technology/Technician,Automobile/Automotive Mechanics Technology/Technician,Diesel Mechanics Technology/Technician,Automobile/Automotive Mechanics Technology/Technician,Automobile/Automotive Mechanics Technology/Technician,Automobile/Automotive Mechanics Technology/Technician,,,24484.0,1860.0,0.616,0.4503,17365,17365,184.607454056433,,0.2482,45200,0.4811762665
117,106111,Empire Beauty School-NW Phoenix,Phoenix,AZ,www.empire.edu,33.538092999999996,-112.118168,0.0,1,Cosmetology/Cosmetologist General,Cosmetology Barber/Styling and Nail Instructor,,,,,,,18142.0,109.0,0.7427,0.8421,11709,11709,124.478472763995,,0.0,18200,0.2771362587
118,106148,Yavapai College,Prescott,AZ,www.YC.EDU,34.547495,-112.453395,0.0,1,,,,,,,,11524.0,,4682.0,0.0938,0.2932,9550,9550,101.526126475032,,0.1693,28800,0.3660079051
119,106245,University of Arkansas at Little Rock,Little Rock,AR,ualr.edu/www/,34.723254,-92.33977800000001,0.0,3,,,,,,,0.7463,21377.0,,6677.0,0.4261,0.3703,19750,19750,209.962408155172,0.145,,34900,0.5772706733
120,106263,University of Arkansas for Medical Sciences,Little Rock,AR,www.uams.edu,34.749047999999995,-92.32004599999999,0.0,3,,,,,,,,,,633.0,0.5925,0.3612,14000,14000,148.834112109995,,,61000,0.8074074074
121,106306,Arkansas Baptist College,Little Rock,AR,www.arkansasbaptist.edu,34.734751,-92.290555,0.0,2,,,,,,,,22512.0,,593.0,0.7882,0.8098,29750,29750,316.27248823374,0.0131,,21800,0.2544080605
122,106315,Arkansas Beauty School-Little Rock,Little Rock,AR,arkbeautyschool.com,34.672171,-92.343366,0.0,1,Cosmetology/Cosmetologist General,Nail Technician/Specialist and Manicurist,Aesthetician/Esthetician and Skin Care Specialist,Cosmetology Barber/Styling and Nail Instructor,,,,,24849.0,129.0,0.6796,0.6456,6333,6333,67.3261737137572,,0.0,14000,0.3188405797
123,106324,Arkansas Beauty College,Russellville,AR,www.arkansasbeautycollegersvlar.com/,35.27902,-93.135369,0.0,1,Cosmetology/Cosmetologist General,Nail Technician/Specialist and Manicurist,Cosmetology Barber/Styling and Nail Instructor,,,,,,14522.0,27.0,0.6757,0.6486,PrivacySuppressed,PrivacySuppressed,PrivacySuppressed,,0.4,PrivacySuppressed,0.4186046512
124,106342,Lyon College,Batesville,AR,www.lyon.edu,35.777619,-91.625354,0.0,3,,,,,,,0.6418,37377.0,,664.0,0.5072,0.358,24720,24720,262.79851795422,0.4839,,38600,0.6743295019
125,106351,Arkansas College of Barbering and Hair Design,North Little Rock,AR,www.arkansascollegeofbarbering.com,34.753842999999996,-92.266429,0.0,1,Barbering/Barber,Cosmetology Barber/Styling and Nail Instructor,,,,,,,21288.0,127.0,0.4146,0.4146,16355,16355,173.870135968498,,0.6818,15300,0.3706896552
126,106360,Arthur's Beauty College Inc-Fort Smith,Fort Smith,AR,www.arthursbeautycollege.com,35.379954999999995,-94.410967,0.0,1,Cosmetology/Cosmetologist General,Cosmetology Barber/Styling and Nail Instructor,,,,,,,15610.0,41.0,0.6964,0.7679,12102.5,12102.5,128.661774415087,,0.0435,17300,0.320754717
127,106397,University of Arkansas,Fayetteville,AR,https://www.uark.edu,36.070009000000006,-94.17698100000001,0.0,3,,,,,,,0.6596,22122.0,,22763.0,0.3866,0.2043,21500,21500,228.566672168921,0.42100000000000004,,44900,0.6712301975
128,106412,University of Arkansas at Pine Bluff,Pine Bluff,AR,www.uapb.edu,34.244031,-92.018683,0.0,3,,,,,,,0.4669,16264.0,,2510.0,0.6542,0.7071,26196.5,26196.5,278.495201277821,0.0926,,27200,0.3661573288
129,106449,Arkansas State University-Beebe,Beebe,AR,www.asub.edu,35.074176,-91.895351,0.0,1,,,,,,,,13260.0,,2645.0,0.1411,0.3287,5500,5500,58.4705440432125,,0.2248,29400,0.5303210464
130,106458,Arkansas State University-Main Campus,Jonesboro,AR,www.astate.edu/,35.842388,-90.679988,0.0,3,,,,,,,0.6602,20952.0,,8856.0,0.5217,0.41200000000000003,19500,19500,207.304656153207,0.2938,,32200,0.5756867329
131,106467,Arkansas Tech University,Russellville,AR,www.atu.edu,35.293237,-93.13561999999999,0.0,3,,,,,,,0.9475,18143.0,,8247.0,0.4252,0.3931,18000,18000,191.358144141422,0.2354,,34100,0.5645795127
132,106485,University of Arkansas at Monticello,Monticello,AR,www.uamont.edu/,33.590909,-91.811153,0.0,1,,,,,,,,17690.0,,2589.0,0.5437,0.5004,14000,14000,148.834112109995,0.1243,,31500,0.4455292909
133,106494,Arthur's Beauty College Inc-Jacksonville,Jacksonville,AR,arthursbeautycollege.com,34.891572,-92.102579,0.0,1,Cosmetology/Cosmetologist General,Cosmetology Barber/Styling and Nail Instructor,,,,,,,14775.0,59.0,0.6822,0.6729,13417,13417,142.636234441414,,0.1489,15300,0.4712643678
134,106546,Baptist Health College Little Rock,Little Rock,AR,https://www.bhclr.edu,34.713115,-92.40692,0.0,2,,,,,,,0.6875,21677.0,,676.0,0.8169,0.7867,11000,11000,116.941088086425,,0.2963,47200,0.7012987013
135,106625,Black River Technical College,Pocahontas,AR,www.blackrivertech.edu,36.239793,-90.951033,0.0,1,,,,,,,,12519.0,,1216.0,0.2352,0.5092,7950,7950,84.5165136624617,,0.1846,26100,0.4469835466
136,106704,University of Central Arkansas,Conway,AR,www.uca.edu,35.077945,-92.457672,0.0,3,,,,,,,0.8995,20702.0,,9034.0,0.4794,0.397,20900.5,20900.5,222.193382868211,0.2253,,38300,0.6233618234
137,106713,Central Baptist College,Conway,AR,www.cbc.edu,35.083838,-92.445021,0.0,3,,,,,,,0.6755,24453.0,,676.0,0.5837,0.449,28250,28250,300.325976221955,0.1563,,35300,0.5753424658
138,106795,Cossatot Community College of the University of Arkansas,De Queen,AR,www.cccua.edu/,34.043389000000005,-94.3673,0.0,1,,,,,,,,10186.0,,955.0,0.0,0.2848,PrivacySuppressed,PrivacySuppressed,PrivacySuppressed,,0.2717,23100,
139,106810,Crowley's Ridge College,Paragould,AR,www.crc.edu/,36.064845,-90.584395,0.0,3,,,,,,,,20416.0,,192.0,0.6624,0.4444,21258,21258,225.99396823102,0.0513,,26000,0.5267857143
140,106829,Crowley's Ridge Technical Institute,Forrest City,AR,www.crti.tec.ar.us,35.039815999999995,-90.767321,0.0,1,,,,,,,,9540.0,,164.0,0.0,0.7037,PrivacySuppressed,PrivacySuppressed,PrivacySuppressed,,0.2951,19300,
141,106883,East Arkansas Community College,Forrest City,AR,https://WWW.EACC.EDU,35.041655,-90.767726,0.0,1,,,,,,,,10806.0,,565.0,0.0569,0.336,PrivacySuppressed,PrivacySuppressed,PrivacySuppressed,,0.1535,22700,0.3229166667
142,106892,Eastern College of Health Vocations-Little Rock,Little Rock,AR,www.easterncollege.edu,34.75128,-92.341891,0.0,1,Medical/Clinical Assistant,Dental Assisting/Assistant,,,,,,,15240.0,115.0,0.9437,0.8619,4179.5,4179.5,44.4322979688375,,0.3386,21700,0.412
143,106908,Imagine-Paul Mitchell Partner School,North Little Rock,AR,paulmitchell.edu/littlerock,34.789913,-92.222202,0.0,1,Cosmetology and Related Personal Grooming Arts Other,Cosmetology Barber/Styling and Nail Instructor,,,,,,,18964.0,385.0,0.7175,0.693,12965,12965,137.831018821863,,0.125,PrivacySuppressed,0.4253578732
144,106980,National Park College,Hot Springs,AR,www.np.edu,34.512687,-93.119248,0.0,2,,,,,,,,13301.0,,2140.0,0.3398,0.5927,10267,10267,109.148559216665,,0.1374,25100,0.3684210526
145,106999,University of Arkansas Community College-Batesville,Batesville,AR,www.uaccb.edu,35.792922999999995,-91.615852,0.0,1,,,,,,,,11681.0,,954.0,0.1761,0.4955,9188,9188,97.6777015761884,,0.4978,25500,0.472406181
146,107044,Harding University,Searcy,AR,www.harding.edu,35.247337,-91.72604100000001,0.0,3,,,,,,,0.7212,28758.0,,4147.0,0.5508,0.2641,27000,27000,287.037216212134,0.4644,,40900,0.7277023036
147,107071,Henderson State University,Arkadelphia,AR,www.hsu.edu,34.128155,-93.059703,0.0,3,,,,,,,0.7968,20913.0,,2829.0,0.4264,0.469,20050,20050,213.151710557529,0.1638,,35700,0.561760841
148,107080,Hendrix College,Conway,AR,www.hendrix.edu,35.101565,-92.443256,0.0,3,,,,,,,0.7979999999999999,58040.0,,1233.0,0.537,0.2327,27000,27000,287.037216212134,0.6729,,39700,0.7620320856
149,107099,Hot Springs Beauty College,Hot Springs,AR,hotspringsbeautycollege.com,34.496057,-93.037277,0.0,1,Cosmetology and Related Personal Grooming Arts Other,Facial Treatment Specialist/Facialist,Nail Technician/Specialist and Manicurist,Cosmetology Barber/Styling and Nail Instructor,,,,,13642.0,38.0,0.9636,0.9818,PrivacySuppressed,PrivacySuppressed,PrivacySuppressed,,0.1111,PrivacySuppressed,0.3714285714
150,107123,Jefferson Regional Medical Center School of Nursing,Pine Bluff,AR,www.jrmc.org,34.187831,-92.018045,0.0,1,Registered Nursing/Registered Nurse,,,,,,,,,65.0,0.581,0.5333,15880.5,15880.5,168.82572266877,,,PrivacySuppressed,PrivacySuppressed
151,107141,John Brown University,Siloam Springs,AR,www.jbu.edu,36.189811999999996,-94.560283,0.0,3,,,,,,,0.7579,37814.0,,1606.0,0.467,0.2747,20500,20500,217.935664161064,0.6167,,45800,0.7462871287
152,107220,Career Academy of Hair Design,Springdale,AR,www.beautynwa.com,36.167605,-94.12947,0.0,1,Cosmetology/Cosmetologist General,Aesthetician/Esthetician and Skin Care Specialist,Nail Technician/Specialist and Manicurist,Cosmetology Barber/Styling and Nail Instructor,,,,,15656.0,169.0,0.8464,0.7809999999999999,6389.5,6389.5,67.9268256662011,,0.4195,20000,0.3684210526
153,107293,Academy of Salon and Spa,Fort Smith,AR,www.academysalonspa.com,35.38097,-94.41615999999999,0.0,1,Cosmetology/Cosmetologist General,,,,,,,,17015.0,58.0,0.6701,0.701,9833,9833,104.534701741256,,0.0,PrivacySuppressed,0.396039604
154,107318,Arkansas State University Mid-South,West Memphis,AR,www.asumidsouth.edu,35.145736,-90.22285,0.0,1,,,,,,,,14830.0,,873.0,0.0,0.3883,PrivacySuppressed,PrivacySuppressed,PrivacySuppressed,,0.1405,22500,
155,107327,Arkansas Northeastern College,Blytheville,AR,www.anc.edu,35.898596999999995,-89.92100500000001,0.0,1,,,,,,,,11124.0,,1002.0,0.0,0.3884,PrivacySuppressed,PrivacySuppressed,PrivacySuppressed,,0.1676,25700,0.4390243902
156,107442,New Tyler Barber College Inc,North Little Rock,AR,newtylerbarbercollege.edu,34.760085,-92.254171,0.0,1,Barbering/Barber,Cosmetology Barber/Styling and Nail Instructor,,,,,,,20157.0,50.0,0.3699,0.7397,PrivacySuppressed,PrivacySuppressed,PrivacySuppressed,,0.175,15900,0.3962264151
157,107460,North Arkansas College,Harrison,AR,www.northark.edu,36.219909,-93.08844,0.0,1,,,,,,,,9853.0,,1466.0,0.1591,0.5626,7000,7000,74.4170560549977,,0.2006,25600,0.4002890173
158,107488,Northwest Technical Institute,Springdale,AR,www.nwti.edu,36.178032,-94.115346,0.0,1,,,,,,,,8151.0,,175.0,0.0,0.68,PrivacySuppressed,PrivacySuppressed,PrivacySuppressed,,0.2143,29800,
159,107512,Ouachita Baptist University,Arkadelphia,AR,www.obu.edu,34.126093,-93.052471,0.0,3,,,,,,,0.7094,35685.0,,1513.0,0.6062,0.2726,21500,21500,228.566672168921,0.5437,,41200,0.6861471861
160,107521,College of the Ouachitas,Malvern,AR,www.coto.edu,34.378745,-92.821416,0.0,1,,,,,,,,11662.0,,642.0,0.2056,0.3358,9412,9412,100.059047369948,,0.1724,27500,0.4488448845
161,107549,Ozarka College,Melbourne,AR,www.ozarka.edu,36.053031,-91.896355,0.0,1,,,,,,,,10866.0,,852.0,0.2277,0.5873,PrivacySuppressed,PrivacySuppressed,PrivacySuppressed,,0.2381,23800,0.3554083885
162,107558,University of the Ozarks,Clarksville,AR,https://www.ozarks.edu,35.476278,-93.467221,0.0,3,,,,,,,0.8915,35426.0,,745.0,0.5452,0.4242,20500,20500,217.935664161064,0.3817,,33900,0.59030837
163,107585,University of Arkansas Community College-Morrilton,Morrilton,AR,www.uaccm.edu,35.172136,-92.728507,0.0,1,,,,,,,0.7506,9563.0,,1796.0,0.2647,0.5278,6822,6822,72.5247366295992,,0.19,27500,0.4827586207
164,107600,Philander Smith College,Little Rock,AR,https://www.philander.edu,34.737131,-92.283015,0.0,3,,,,,,,,25349.0,,887.0,0.9412,0.8118,30875,30875,328.232372242579,0.1702,,24400,0.3868921776
165,107619,Phillips Community College of the University of Arkansas,Helena,AR,www.pccua.edu,34.546155,-90.616884,0.0,1,,,,,,,,10419.0,,654.0,0.0,0.3406,PrivacySuppressed,PrivacySuppressed,PrivacySuppressed,,0.2162,22400,0.3214285714
166,107637,Southeast Arkansas College,Pine Bluff,AR,www.seark.edu,34.210309,-92.025936,0.0,1,,,,,,,,12380.0,,1087.0,0.2933,0.6628,6652.5,6652.5,70.7227807722674,,0.0415,26700,0.4023972603
167,107655,Professional Cosmetology Education Center,El Dorado,AR,www.pcec.edu,33.216032,-92.664101,0.0,1,Cosmetology and Related Personal Grooming Arts Other,Cosmetology Barber/Styling and Nail Instructor,,,,,,,11555.0,28.0,0.8108,0.8108,PrivacySuppressed,PrivacySuppressed,PrivacySuppressed,,0.8462,PrivacySuppressed,0.4107142857
168,107664,University of Arkansas-Pulaski Technical College,North Little Rock,AR,www.uaptc.edu,34.782783,-92.299184,0.0,1,,,,,,,,14794.0,,5184.0,0.5088,0.5541,15147,15147,161.027878295007,,0.0803,27700,0.4159965537
169,107725,University of Arkansas Community College-Hope,Hope,AR,www.uacch.edu,33.641665,-93.596762,0.0,1,,,,,,,,11775.0,,1492.0,0.0,0.58,PrivacySuppressed,PrivacySuppressed,PrivacySuppressed,,0.2063,24400,0.5
170,107743,University of Arkansas Community College Rich Mountain,Mena,AR,www.uarichmountain.edu,34.591449,-94.219799,0.0,1,,,,,,,,10599.0,,481.0,0.0,0.373,PrivacySuppressed,PrivacySuppressed,PrivacySuppressed,,0.175,20800,
171,107789,Paul Mitchell the School-Arkansas,Fayetteville,AR,https://paulmitchell.edu/arkansas/,36.126373,-94.153892,0.0,1,Cosmetology/Cosmetologist General,,,,,,,,23249.0,106.0,0.6491,0.5439,11115,11115,118.163654007328,,0.1818,PrivacySuppressed,0.7155963303
172,107831,Searcy Beauty College,Searcy,AR,searcybeautycollege.com/,35.239148,-91.735135,0.0,1,Cosmetology/Cosmetologist General,Nail Technician/Specialist and Manicurist,Cosmetology Barber/Styling and Nail Instructor,,,,,,23962.0,67.0,0.6783,0.687,12653,12653,134.514144323412,,0.125,13400,0.328358209
173,107840,Shorter College,N Little Rock,AR,www.shortercollege.edu,34.75933,-92.26133100000001,0.0,2,,,,,,,,21444.0,,521.0,0.4559,0.8701,27861,27861,296.190514106898,,0.0833,,0.247311828
174,107877,Williams Baptist University,Walnut Ridge,AR,https://williamsbaptistuniversity.com/,36.125676,-90.94027700000001,0.0,3,,,,,,,0.6241,28274.0,,452.0,0.6333,0.4627,19000,19000,201.989152149279,0.3185,,33100,0.6174242424
175,107974,South Arkansas Community College,El Dorado,AR,www.southark.edu,33.209446,-92.666087,0.0,1,,,,,,,,11306.0,,1100.0,0.2962,0.5202,9471,9471,100.686276842411,,0.0647,29000,0.4453507341
176,107983,Southern Arkansas University Main Campus,Magnolia,AR,https://www.saumag.edu,33.291618,-93.235922,0.0,3,,,,,,,0.6945,21252.0,,3153.0,0.7737,0.5017,16750,16750,178.069384131601,0.2504,,35700,0.4865079365
177,107992,Southern Arkansas University Tech,Camden,AR,www.sautech.edu,33.628367,-92.72162900000001,0.0,1,,,,,,,,16844.0,,667.0,0.35,0.5115,5500,5500,58.4705440432125,,0.4091,26700,0.3901234568
178,108065,Velvatex College of Beauty Culture,Little Rock,AR,www.velvatexcollege.com,34.735685,-92.289597,0.0,1,Cosmetology/Cosmetologist General,,,,,,,,13337.0,14.0,0.9129999999999999,0.9129999999999999,PrivacySuppressed,PrivacySuppressed,PrivacySuppressed,,0.4286,PrivacySuppressed,
179,108092,University of Arkansas-Fort Smith,Fort Smith,AR,uafs.edu/,35.384184000000005,-94.373729,0.0,3,,,,,,,,16554.0,,5455.0,0.3787,0.4492,14000,14000,148.834112109995,0.1624,,31000,0.5166270784
180,108232,Academy of Art University,San Francisco,CA,www.academyart.edu,37.787943,-122.400578,0.0,3,,,,,,,,38666.0,,7520.0,0.4718,0.3618,35688,35688,379.399413784394,0.0551,,38600,0.3587936866
181,108269,Academy of Chinese Culture and Health Sciences,Oakland,CA,www.acchs.edu,37.805972,-122.26983899999999,0.0,4,,,,,,,,,,,,,PrivacySuppressed,PrivacySuppressed,PrivacySuppressed,,,,
182,108348,The Academy of Radio and TV Broadcasting,Huntington Beach,CA,WWW.ARBRADIO.COM,33.729535,-117.98776200000002,0.0,1,Radio and Television,Radio and Television,Radio and Television Broadcasting Technology/Technician,,,,,,28685.0,14.0,1.0,0.9333,9500,9500,100.994576074639,,0.7667,31000,0.2657342657
183,108649,Avalon School of Cosmetology-Alameda,Alameda,CA,avalon.edu/locations/alameda-ca/,37.764203,-122.24356599999999,0.0,1,Cosmetology/Cosmetologist General,Aesthetician/Esthetician and Skin Care Specialist,,,,,,,18124.0,125.0,0.5047,0.5094,6332,6332,67.3155427057493,,0.4923,20000,0.2958801498
184,108667,College of Alameda,Alameda,CA,alameda.peralta.edu/,37.781017,-122.279303,0.0,1,,,,,,,,15232.0,,4458.0,0.0058,0.1852,PrivacySuppressed,PrivacySuppressed,PrivacySuppressed,,0.1268,34200,0.2755102041
185,108807,Allan Hancock College,Santa Maria,CA,www.hancockcollege.edu/,34.943715999999995,-120.421144,0.0,2,,,,,,,,10348.0,,9282.0,0.0111,0.2102,9500,9500,100.994576074639,,0.1168,30400,0.2916666667
186,108852,American Academy of Dramatic Arts-Los Angeles,Los Angeles,CA,www.aada.edu,34.095378000000004,-118.343701,0.0,2,,,,,,,0.7859,48240.0,,280.0,0.5215,0.3003,12000,12000,127.572096094281,,0.6918,32700,0.4113475177
187,108861,American Baptist Seminary of the West,Berkeley,CA,www.absw.edu,37.865252000000005,-122.256149,0.0,4,,,,,,,,,,,,,PrivacySuppressed,PrivacySuppressed,PrivacySuppressed,,,,
188,108870,American Film Institute Conservatory,Los Angeles,CA,www.AFI.com,34.10767,-118.310018,0.0,4,,,,,,,,,,,,,PrivacySuppressed,PrivacySuppressed,PrivacySuppressed,,,,PrivacySuppressed
189,108977,American Beauty College,West Covina,CA,www.americanbeautycollege.com,34.069367,-117.936959,0.0,1,Cosmetology/Cosmetologist General,Barbering/Barber,Nail Technician/Specialist and Manicurist,Cosmetology Barber/Styling and Nail Instructor,,,,,15743.0,118.0,0.5838,0.6378,5635,5635,59.9057301242731,,0.75,PrivacySuppressed,0.5408163265
190,109040,American Career College-Los Angeles,Los Angeles,CA,americancareercollege.edu,34.079322999999995,-118.29248100000001,0.0,1,Medical/Clinical Assistant,Licensed Practical/Vocational Nurse Training,Surgical Technology/Technologist,Dental Assisting/Assistant,Medical Insurance Coding Specialist/Coder,Pharmacy Technician/Assistant,,,25723.0,1237.0,0.532,0.6284,9500,9500,100.994576074639,,0.3422,31800,0.3423601502
191,109086,American Conservatory Theater,San Francisco,CA,www.act-sf.org,37.787343,-122.40475,0.0,1,,,,,,,,48677.0,,1.0,0.0526,0.0526,PrivacySuppressed,PrivacySuppressed,PrivacySuppressed,,,PrivacySuppressed,
192,109208,American River College,Sacramento,CA,www.arc.losrios.edu/,38.65085,-121.349672,0.0,1,,,,,,,,12098.0,,29082.0,0.036000000000000004,0.2399,12969,12969,137.873542853895,,0.1026,32000,0.2558210784
193,109350,Antelope Valley College,Lancaster,CA,www.avc.edu,34.676207,-118.18616599999999,0.0,2,,,,,,,,15110.0,,11868.0,0.11199999999999999,0.4564,9250,9250,98.3368240726755,,,27100,0.1919156415
194,109651,Art Center College of Design,Pasadena,CA,www.artcenter.edu,34.169031,-118.185102,0.0,3,,,,,,,0.7036,62312.0,,1974.0,0.4287,0.3255,31624,31624,336.194997240464,0.2414,,53600,0.6971830986
195,109721,Associated Technical College-Los Angeles,Los Angeles,CA,www.atcla.edu,34.056102,-118.272364,0.0,1,Cardiovascular Technology/Technologist,Computer Systems Networking and Telecommunications,,,,,,,25936.0,387.0,0.4065,0.7365,9500,9500,100.994576074639,,0.564,23000,0.2374768089
196,109730,Associated Technical College-San Diego,San Diego,CA,www.atcsd.edu,32.715375,-117.15798799999999,0.0,1,Communications Technologies/Technicians and Support Services Other,Computer and Information Sciences General,,,,,,,26501.0,80.0,0.5992,0.8945,9500,9500,100.994576074639,,0.4958,19600,0.1976744186
197,109785,Azusa Pacific University,Azusa,CA,www.apu.edu,34.130047,-117.888375,0.0,3,,,,,,,0.6012,49911.0,,5560.0,0.6038,0.3374,23092,23092,245.491236917429,0.5191,,51100,0.6398247056
198,109819,Bakersfield College,Bakersfield,CA,www.bakersfieldcollege.edu/,35.40911,-118.973753,0.0,2,,,,,,,,12027.0,,18695.0,0.0169,0.3418,9000,9000,95.6790720707113,,,29800,0.2836676218
199,109907,Barstow Community College,Barstow,CA,www.barstow.edu,34.870284999999996,-117.02341200000001,0.0,2,,,,,,,,14307.0,,2762.0,0.0,0.4962,PrivacySuppressed,PrivacySuppressed,PrivacySuppressed,,0.0653,29900,
200,109934,Bellus Academy-Chula Vista,Chula Vista,CA,www.bellusacademy.edu,32.614773,-117.08373799999998,0.0,1,Barbering/Barber,Make-Up Artist/Specialist,Cosmetology and Related Personal Grooming Arts Other,Barbering/Barber,Cosmetology/Cosmetologist General,Nail Technician/Specialist and Manicurist,,,25670.0,200.0,0.65,0.7176,12284,12284,130.591302368513,,0.0,18200,0.2328244275
201,110060,Bethesda University,Anaheim,CA,www.buc.edu,33.842295,-117.941323,0.0,3,,,,,,,,20343.0,,257.0,0.3515,0.3993,PrivacySuppressed,PrivacySuppressed,PrivacySuppressed,0.0923,,PrivacySuppressed,0.380952381
202,110097,Biola University,La Mirada,CA,https://www.biola.edu,33.906203000000005,-118.014374,0.0,3,,,,,,,0.7198,51154.0,,4039.0,0.5928,0.3013,24188,24188,257.14282169404,0.5523,,44500,0.7403017241
203,110194,Brownson Technical School,Anaheim,CA,www.brownson.edu,33.819032,-117.905774,0.0,1,Heating Air Conditioning Ventilation and Refrigeration Maintenance Technology/Technician,Heating Air Conditioning Ventilation and Refrigeration Maintenance Technology/Technician,,,,,,,30676.0,51.0,0.7955,0.7468,9500,9500,100.994576074639,,0.7226,48400,0.6218487395
204,110219,Bryan University,Tempe,AZ,bryanuniversity.edu,33.437779,-111.944197,0.0,2,,,,,,,,23530.0,,1242.0,0.7726,0.6794,20384,20384,216.702467232153,,,31900,0.314059647
205,110246,Butte College,Oroville,CA,www.butte.edu,39.649782,-121.64483100000001,0.0,2,,,,,,,,11717.0,,10188.0,0.0719,0.4163,11614.5,11614.5,123.473842507253,,0.1185,31300,0.3354755784
207,110316,California Institute of Integral Studies,San Francisco,CA,www.ciis.edu,37.774924,-122.416102,0.0,3,,,,,,,,,,50.0,0.9571,0.5714,18750,18750,199.331400147315,,,PrivacySuppressed,0.4609375
208,110334,Cabrillo College,Aptos,CA,www.cabrillo.edu,36.989447999999996,-121.924797,0.0,2,,,,,,,,14270.0,,10556.0,0.0189,0.2195,10500,10500,111.625584082496,,0.0904,33300,0.3925373134
209,110361,California Baptist University,Riverside,CA,www.calbaptist.edu,33.929321,-117.425619,0.0,3,,,,,,,0.7708,43158.0,,7397.0,0.7211,0.4488,27000,27000,287.037216212134,0.40700000000000003,,42600,0.5394831299
210,110370,California College of the Arts,San Francisco,CA,www.cca.edu,37.767485,-122.399451,0.0,3,,,,,,,0.6369,61515.0,,1475.0,0.4215,0.2932,27000,27000,287.037216212134,0.4009,,37200,0.6337792642
211,110398,University of California-Hastings College of Law,San Francisco,CA,www.uchastings.edu,37.781137,-122.4157,0.0,4,,,,,,,,,,,,,3000,3000,31.8930240235704,,,114700,PrivacySuppressed
212,110404,California Institute of Technology,Pasadena,CA,www.caltech.edu,34.137349,-118.125878,0.0,3,,,,,,,0.0774,65874.0,,961.0,0.0429,0.1236,12178.5,12178.5,129.469731023684,0.7901,,85900,PrivacySuppressed
213,110413,California Lutheran University,Thousand Oaks,CA,www.callutheran.edu/,34.224565999999996,-118.878924,0.0,3,,,,,,,0.7275,55546.0,,2959.0,0.4817,0.2559,21875,21875,232.553300171867,0.62,,54200,0.7060260586
214,110422,California Polytechnic State University-San Luis Obispo,San Luis Obispo,CA,calpoly.edu,35.299513,-120.657311,0.0,3,,,,,,,0.3461,25960.0,,21303.0,0.3153,0.1764,18631,18631,198.06631019438,0.4538,,66900,0.8668037469
215,110468,Alliant International University-San Diego,San Diego,CA,www.alliant.edu,32.897056,-117.094398,0.0,1,,,,,,,0.8,33375.0,,391.0,0.0639,0.0381,5000,5000,53.155040039284,,,59500,0.4181818182
216,110486,California State University-Bakersfield,Bakersfield,CA,www.csub.edu,35.350004999999996,-119.10471100000001,0.0,3,,,,,,,0.6112,16832.0,,8705.0,0.3687,0.6113,13000,13000,138.203104102138,0.1406,,47800,0.5522959184
217,110495,California State University-Stanislaus,Turlock,CA,https://www.csustan.edu,37.52577,-120.852511,0.0,3,,,,,,,0.7706,15732.0,,9054.0,0.3671,0.6006,14216,14216,151.130409839692,0.1149,,45400,0.6448722204
218,110510,California State University-San Bernardino,San Bernardino,CA,www.csusb.edu,34.182621999999995,-117.323801,0.0,3,,,,,,,0.5713,18202.0,,18088.0,0.3516,0.6376,15000,15000,159.465120117852,0.1211,,44500,0.5218547449
219,110529,California State Polytechnic University-Pomona,Pomona,CA,www.cpp.edu,34.057912,-117.821476,0.0,3,,,,,,,0.5507,21137.0,,24205.0,0.3482,0.4629,18500,18500,196.673648145351,0.1777,,54000,0.7256108279
220,110538,California State University-Chico,Chico,CA,www.csuchico.edu,39.729712,-121.84485900000001,0.0,3,,,,,,,0.6778,22917.0,,16546.0,0.4712,0.4493,16750,16750,178.069384131601,0.26,,48100,0.7104344453
221,110547,California State University-Dominguez Hills,Carson,CA,https://www.csudh.edu,33.864765999999996,-118.255917,0.0,3,,,,,,,0.5368,14463.0,,13258.0,0.3356,0.6194,13740.5,13740.5,146.075365531956,0.06,,44700,0.5070004243
222,110556,California State University-Fresno,Fresno,CA,www.fresnostate.edu/,36.811153999999995,-119.744569,0.0,3,,,,,,,0.5941,16205.0,,21877.0,0.2911,0.574,14367,14367,152.735692048878,0.1533,,44700,0.6376934853
223,110565,California State University-Fullerton,Fullerton,CA,www.fullerton.edu,33.881506,-117.885446,0.0,3,,,,,,,0.4572,17529.0,,35045.0,0.3012,0.4689,14804,14804,157.381442548312,0.21899999999999997,,47200,0.7021053856
224,110574,California State University-East Bay,Hayward,CA,www.csueastbay.edu,37.657694,-122.054135,0.0,3,,,,,,,0.7405,21267.0,,13433.0,0.3673,0.47100000000000003,15092.5,15092.5,160.448488358579,0.1031,,51700,0.616416553
225,110583,California State University-Long Beach,Long Beach,CA,www.csulb.edu,33.782818,-118.11204,0.0,3,,,,,,,0.2799,18104.0,,31402.0,0.34600000000000003,0.508,15000,15000,159.465120117852,0.1614,,48100,0.7066651756
226,110592,California State University-Los Angeles,Los Angeles,CA,www.calstatela.edu,34.066927,-118.16896499999999,0.0,3,,,,,,,0.4645,13612.0,,24780.0,0.3265,0.6699,12500,12500,132.88760009821,0.0648,,46100,0.5822074048
227,110608,California State University-Northridge,Northridge,CA,https://www.csun.edu,34.240126000000004,-118.529319,0.0,3,,,,,,,0.5765,15960.0,,35620.0,0.3003,0.5428,13833,13833,147.058733772683,0.1257,,45400,0.6067033517
228,110617,California State University-Sacramento,Sacramento,CA,www.csus.edu,38.559415,-121.423549,0.0,3,,,,,,,0.6776,18989.0,,28410.0,0.3586,0.5242,15250,15250,162.122872119816,0.0854,,48900,0.6550400351
229,110635,University of California-Berkeley,Berkeley,CA,www.berkeley.edu,37.871918,-122.26046299999999,0.0,3,,,,,,,0.1711,35777.0,,30574.0,0.2373,0.2775,13200,13200,140.32930570371,0.7579,,64700,0.8016838167
230,110644,University of California-Davis,Davis,CA,www.ucdavis.edu,38.539667,-121.749567,0.0,3,,,,,,,0.4336,34435.0,,30046.0,0.36,0.385,14000,14000,148.834112109995,0.5787,,58200,0.8310542019
231,110653,University of California-Irvine,Irvine,CA,www.uci.edu/,33.648434,-117.841248,0.0,3,,,,,,,0.3651,31976.0,,29295.0,0.364,0.4234,16500,16500,175.411632129637,0.7033,,58400,0.7755230455
232,110662,University of California-Los Angeles,Los Angeles,CA,www.ucla.edu/,34.068892,-118.443901,0.0,3,,,,,,,0.161,33751.0,,30994.0,0.3332,0.3378,15000,15000,159.465120117852,0.7481,,60700,0.7863156488
233,110671,University of California-Riverside,Riverside,CA,WWW.UCR.EDU,33.97246,-117.32741000000001,0.0,3,,,,,,,0.5723,32308.0,,20044.0,0.5034,0.5579999999999999,19000,19000,201.989152149279,0.5341,,49700,0.6673076923
234,110680,University of California-San Diego,La Jolla,CA,www.ucsd.edu,32.877749,-117.23586599999999,0.0,3,,,,,,,0.3399,31794.0,,28577.0,0.3615,0.3427,17500,17500,186.042640137494,0.5514,,59900,0.8207206084
235,110699,University of California-San Francisco,San Francisco,CA,www.ucsf.edu,37.763737,-122.45848899999999,0.0,4,,,,,,,,,,,,,6500,6500,69.1015520510693,,,143700,PrivacySuppressed
236,110705,University of California-Santa Barbara,Santa Barbara,CA,www.ucsb.edu,34.416297,-119.846426,0.0,3,,,,,,,0.3281,34990.0,,22181.0,0.3632,0.3649,16300,16300,173.285430528066,0.6844,,55300,0.7458906407
237,110714,University of California-Santa Cruz,Santa Cruz,CA,www.ucsc.edu/,36.995584,-122.058801,0.0,3,,,,,,,0.5094,35315.0,,17577.0,0.4641,0.3935,19700,19700,209.430857754779,0.5284,,46900,0.7497738375
238,110778,Sofia University,Palo Alto,CA,www.sofia.edu,37.430325,-122.10866000000001,0.0,3,,,,,,,,,,11.0,0.5556,0.6667,PrivacySuppressed,PrivacySuppressed,PrivacySuppressed,,,,PrivacySuppressed
239,110875,California Beauty School,Modesto,CA,www.calbeautycollege.edu,37.645216999999995,-120.99689,0.0,1,Cosmetology/Cosmetologist General,Aesthetician/Esthetician and Skin Care Specialist,Nail Technician/Specialist and Manicurist,,,,,,16288.0,98.0,0.4424,0.3818,7664,7664,81.4760453722146,,0.1111,PrivacySuppressed,0.4608695652
240,110918,California Christian College,Fresno,CA,www.calchristiancollege.edu,36.749365999999995,-119.711123,0.0,3,,,,,,,1.0,25890.0,,16.0,0.5,0.5556,PrivacySuppressed,PrivacySuppressed,PrivacySuppressed,,,PrivacySuppressed,PrivacySuppressed
241,111054,California Hair Design Academy,La Mesa,CA,https://chdaschools.com,32.765221000000004,-117.02426100000001,0.0,1,Cosmetology/Cosmetologist General,Barbering/Barber,Aesthetician/Esthetician and Skin Care Specialist,Nail Technician/Specialist and Manicurist,Teacher Education and Professional Development Specific Subject Areas Other,,,,21655.0,206.0,0.4694,0.5364,5910,5910,62.8292573264337,,0.0156,17800,0.46692607
242,111081,California Institute of the Arts,Valencia,CA,www.calarts.edu,34.39327,-118.566837,0.0,3,,,,,,,0.2406,66475.0,,979.0,0.461,0.2474,27000,27000,287.037216212134,0.6241,,37900,0.6650366748
243,111188,California State University Maritime Academy,Vallejo,CA,https://www.csum.edu,38.069061,-122.231551,0.0,3,,,,,,,0.6635,22301.0,,1048.0,0.5393,0.2945,26000,26000,276.406208204277,0.4718,,82900,0.8184210526
244,111391,California Western School of Law,San Diego,CA,https://www.cwsl.edu,32.722192,-117.162416,0.0,4,,,,,,,,,,,,,PrivacySuppressed,PrivacySuppressed,PrivacySuppressed,,,78500,PrivacySuppressed
245,111434,Canada College,Redwood City,CA,canadacollege.edu,37.44877,-122.265398,0.0,2,,,,,,,,9513.0,,4996.0,0.0121,0.1087,PrivacySuppressed,PrivacySuppressed,PrivacySuppressed,,0.1111,31500,0.3831168831
246,111461,College of the Canyons,Santa Clarita,CA,www.canyons.edu,34.403993,-118.568698,0.0,2,,,,,,,,11293.0,,17828.0,0.021,0.1978,10098.5,10098.5,107.357234367342,,0.1332,39400,0.345721694
247,111513,Career Academy of Beauty,Garden Grove,CA,CAofB.com,33.781017999999996,-118.031697,0.0,1,Cosmetology/Cosmetologist General,Aesthetician/Esthetician and Skin Care Specialist,Cosmetology Barber/Styling and Nail Instructor,Nail Technician/Specialist and Manicurist,,,,,17384.0,139.0,0.4961,0.5,6333,6333,67.3261737137572,,0.76,23200,0.592
248,111638,Casa Loma College-Van Nuys,Van Nuys,CA,www.casalomacollege.edu,34.192828999999996,-118.45778100000001,0.0,1,Licensed Practical/Vocational Nurse Training,Magnetic Resonance Imaging (MRI) Technology/Technician,Diagnostic Medical Sonography/Sonographer and Ultrasound Technician,Physical Therapy Technician/Assistant,,,0.8448,,28723.0,215.0,0.8426,0.5926,18320,18320,194.760066703936,,0.3659,49600,0.3695380774
249,111708,CET-San Diego,San Diego,CA,https://www.cetweb.edu,32.711302,-117.105328,0.0,1,Welding Technology/Welder,Building Construction Technology,Medical/Clinical Assistant,Business/Office Automation/Technology/Data Entry,,,,,21428.0,201.0,0.4771,0.5286,6143,6143,65.3062821922644,,0.2377,23800,0.3120107962
250,111717,CET-San Jose,San Jose,CA,https://cetweb.edu,37.322722999999996,-121.88698000000001,0.0,1,Electrician,Medical/Clinical Assistant,Automobile/Automotive Mechanics Technology/Technician,Building Construction Technology,Culinary Arts and Related Services Other,Medical Administrative/Executive Assistant and Medical Secretary,,,22470.0,242.0,0.3942,0.4427,6143,6143,65.3062821922644,,0.3261,23800,0.3120107962
251,111726,CET-El Centro,El Centro,CA,https://cetweb.edu,32.790908,-115.549079,0.0,1,Welding Technology/Welder,Accounting,Building Construction Technology,Truck and Bus Driver/Commercial Vehicle Operator and Instructor,Retailing and Retail Operations,,,,20992.0,222.0,0.1012,0.5271,6143,6143,65.3062821922644,,0.6509999999999999,23800,0.3120107962
252,111744,CET-Colton,Colton,CA,https://cetweb.edu,34.077381,-117.35348799999998,0.0,1,Welding Technology/Welder,Heating Air Conditioning Ventilation and Refrigeration Maintenance Technology/Technician,Building Construction Technology,Heating Air Conditioning Ventilation and Refrigeration Maintenance Technology/Technician,Truck and Bus Driver/Commercial Vehicle Operator and Instructor,Machine Shop Technology/Assistant,,,19841.0,173.0,0.6132,0.6167,6143,6143,65.3062821922644,,0.7527,23800,0.3120107962
253,111762,CET-Watsonville,Watsonville,CA,https://www.cetweb.edu,36.931833000000005,-121.767991,0.0,1,Medical Office Assistant/Specialist,Building Construction Technology,Welding Technology/Welder,Construction Trades Other,Retailing and Retail Operations,,,,17222.0,78.0,0.1105,0.2541,6143,6143,65.3062821922644,,0.6271,23800,0.3120107962
254,111799,CET-Salinas,Salinas,CA,https://cetweb.edu,36.707333,-121.65236000000002,0.0,1,Business/Office Automation/Technology/Data Entry,Construction Trades Other,,,,,,,19886.0,74.0,0.0833,0.3194,6143,6143,65.3062821922644,,0.4337,23800,0.3120107962
255,111887,Cerritos College,Norwalk,CA,www.cerritos.edu,33.886874,-118.09733700000001,0.0,2,,,,,,,,14874.0,,16744.0,0.0302,0.4146,7000,7000,74.4170560549977,,0.0785,31900,0.3414414414
256,111896,Cerro Coso Community College,Ridgecrest,CA,cerrocoso.edu,35.567525,-117.66767,0.0,2,,,,,,,,14137.0,,4736.0,0.0,0.1585,PrivacySuppressed,PrivacySuppressed,PrivacySuppressed,,0.0608,28000,PrivacySuppressed
257,111920,Chabot College,Hayward,CA,www.chabotcollege.edu,37.642458000000005,-122.105636,0.0,2,,,,,,,,11777.0,,12512.0,0.0126,0.1993,7261,7261,77.1917491450483,,0.105,34600,0.341991342
258,111939,Chaffey College,Rancho Cucamonga,CA,www.chaffey.edu,34.147663,-117.57393200000001,0.0,2,,,,,,,,15463.0,,19725.0,0.0,0.3232,PrivacySuppressed,PrivacySuppressed,PrivacySuppressed,,0.0734,31500,0.3505747126
259,111948,Chapman University,Orange,CA,https://www.chapman.edu,33.79302,-117.85251799999999,0.0,3,,,,,,,0.5724,66430.0,,6740.0,0.5454,0.1622,21000,21000,223.251168164993,0.6933,,54500,0.676021461
260,111966,Charles R Drew University of Medicine and Science,Los Angeles,CA,www.cdrewu.edu,33.925658,-118.242791,0.0,2,,,,,,,0.9016,,,138.0,0.8523,0.5682,18750,18750,199.331400147315,0.0,,81900,0.4636363636
261,112075,Concordia University-Irvine,Irvine,CA,www.cui.edu,33.653665000000004,-117.81230500000001,0.0,3,,,,,,,0.5845,46935.0,,1821.0,0.6104,0.2738,22250,22250,236.539928174814,0.5646,,46400,0.6862955032
262,112084,San Diego Christian College,Santee,CA,sdcc.edu,32.842403999999995,-116.97811200000001,0.0,3,,,,,,,0.6235,43515.0,,657.0,0.8475,0.5324,23525,23525,250.094463384831,0.5556,,36700,0.451171875
263,112127,Church Divinity School of the Pacific,Berkeley,CA,www.cdsp.edu,37.876184,-122.261122,0.0,4,,,,,,,,,,,,,PrivacySuppressed,PrivacySuppressed,PrivacySuppressed,,,,
264,112172,Citrus College,Glendora,CA,www.citruscollege.edu,34.135487,-117.88526599999999,0.0,2,,,,,,,,9307.0,,11629.0,0.0186,0.311,4750,4750,50.4972880373198,,0.1687,30900,0.2865384615
265,112181,Citrus Heights Beauty College,Citrus Heights,CA,chbeautycollege.com,38.712951000000004,-121.289529,0.0,1,Cosmetology/Cosmetologist General,Aesthetician/Esthetician and Skin Care Specialist,Nail Technician/Specialist and Manicurist,,,,,,10174.0,92.0,0.3025,0.4506,PrivacySuppressed,PrivacySuppressed,PrivacySuppressed,,0.1875,,
266,112190,City College of San Francisco,San Francisco,CA,www.ccsf.edu,37.725953000000004,-122.451155,0.0,1,,,,,,,,10324.0,,23574.0,0.0112,0.1688,7250,7250,77.0748080569619,,0.1345,35100,0.3751269036
267,112251,Claremont Graduate University,Claremont,CA,www.cgu.edu,34.103584999999995,-117.71370300000001,0.0,4,,,,,,,,,,,,,PrivacySuppressed,PrivacySuppressed,PrivacySuppressed,,,67000,PrivacySuppressed
268,112260,Claremont McKenna College,Claremont,CA,www.cmc.edu,34.102154,-117.71118799999999,0.0,3,,,,,,,0.1036,69385.0,,1334.0,0.2056,0.1225,14500,14500,154.149616113923,0.8388,,72900,PrivacySuppressed
269,112288,Milan Institute-Visalia,Visalia,CA,www.milaninstitute.edu,36.271640000000005,-119.312151,0.0,1,Medical/Clinical Assistant,Medical Administrative/Executive Assistant and Medical Secretary,Dental Assisting/Assistant,Massage Therapy/Therapeutic Massage,Accounting and Related Services Other,Administrative Assistant and Secretarial Science General,,,22441.0,286.0,0.5552,0.6752,8810,8810,93.6591805492185,,0.1987,24200,0.3144876325
270,112367,Clovis Adult Education,Clovis,CA,clovisadult.cusd.com,36.834459,-119.69036899999999,0.0,1,Licensed Practical/Vocational Nurse Training,Medical/Clinical Assistant,Nursing Assistant/Aide and Patient Care Assistant/Aide,Medical Office Assistant/Specialist,Administrative Assistant and Secretarial Science General,,,,19168.0,792.0,0.0,0.1722,PrivacySuppressed,PrivacySuppressed,PrivacySuppressed,,0.4959,34500,
271,112385,Coastline Community College,Fountain Valley,CA,www.coastline.edu,33.715634,-117.929143,0.0,2,,,,,,,,15144.0,,9764.0,0.0341,0.1447,5250,5250,55.8127920412483,,0.0861,35100,0.3771812081
272,112394,Cogswell College,San Jose,CA,www.cogswell.edu,37.414049,-121.94086999999999,0.0,3,,,,,,,0.6404,32122.0,,603.0,0.6738,0.4538,31000,31000,329.561248243561,0.2791,,49800,0.4415584416
274,112455,Coba Academy,Anaheim,CA,www.coba.edu,33.841141,-117.94310800000001,0.0,1,Cosmetology/Cosmetologist General,Aesthetician/Esthetician and Skin Care Specialist,,,,,,,18976.0,61.0,0.6782,0.6437,10556,10556,112.220920530936,,0.1667,19000,0.4339622642
275,112525,Western University of Health Sciences,Pomona,CA,www.westernu.edu,34.058091999999995,-117.74773200000001,0.0,4,,,,,,,,,,,,,PrivacySuppressed,PrivacySuppressed,PrivacySuppressed,,,106100,PrivacySuppressed
276,112561,Columbia College,Sonora,CA,www.gocolumbia.edu/,38.030367,-120.38838500000001,0.0,2,,,,,,,,11775.0,,2216.0,0.0,0.2916,PrivacySuppressed,PrivacySuppressed,PrivacySuppressed,,0.0632,27300,
277,112570,Columbia College Hollywood,Tarzana,CA,https://www.columbiacollege.edu,34.17972,-118.538793,0.0,3,,,,,,,0.4953,30863.0,,453.0,0.6883,0.3821,25023,25023,266.019713380601,0.4107,,31400,0.3833333333
278,112686,Compton College,Compton,CA,www.compton.edu,33.878226,-118.20946299999999,0.0,2,,,,,,,,14926.0,,6212.0,0.0,0.2935,PrivacySuppressed,PrivacySuppressed,PrivacySuppressed,,0.0259,31800,0.2452054795
279,112826,Contra Costa College,San Pablo,CA,www.contracosta.edu,37.969381,-122.337377,0.0,2,,,,,,,,12881.0,,5372.0,0.025,0.2627,PrivacySuppressed,PrivacySuppressed,PrivacySuppressed,,0.0699,33200,0.2775665399
280,113096,Cosumnes River College,Sacramento,CA,www.crc.losrios.edu/,38.45295,-121.42310800000001,0.0,2,,,,,,,,10738.0,,13027.0,0.0324,0.2491,9000,9000,95.6790720707113,,0.0736,29700,0.2514563107
281,113111,Crafton Hills College,Yucaipa,CA,www.craftonhills.edu,34.039178,-117.101173,0.0,2,,,,,,,,19525.0,,5373.0,0.0,0.1659,PrivacySuppressed,PrivacySuppressed,PrivacySuppressed,,0.0874,33000,PrivacySuppressed
282,113193,Cuesta College,San Luis Obispo,CA,https://www.cuesta.edu,35.331276,-120.74223500000001,0.0,2,,,,,,,,14167.0,,7858.0,0.0462,0.1956,9500,9500,100.994576074639,,0.111,35600,0.546184739
283,113218,Cuyamaca College,El Cajon,CA,www.cuyamaca.edu,32.744954,-116.94350700000001,0.0,2,,,,,,,,10286.0,,7922.0,0.0079,0.2776,PrivacySuppressed,PrivacySuppressed,PrivacySuppressed,,0.0652,29000,0.4252873563
284,113236,Cypress College,Cypress,CA,www.cypresscollege.edu,33.82833,-118.025143,0.0,2,,,,,,,,11699.0,,14434.0,0.0144,0.2782,9500,9500,100.994576074639,,,35600,0.4194029851
285,113333,De Anza College,Cupertino,CA,www.deanza.edu/,37.320788,-122.04555800000001,0.0,2,,,,,,,,11249.0,,18183.0,0.0315,0.1795,PrivacySuppressed,PrivacySuppressed,PrivacySuppressed,,0.4714,41700,0.4149933066
286,113449,International School of Beauty Inc,Palm Desert,CA,https://btyschool.com/,33.729555,-116.40392800000001,0.0,1,Cosmetology/Cosmetologist General,Barbering/Barber,Aesthetician/Esthetician and Skin Care Specialist,Massage Therapy/Therapeutic Massage,Nail Technician/Specialist and Manicurist,Cosmetology Barber/Styling and Nail Instructor,,,16345.0,159.0,0.5124,0.6078,7240.5,7240.5,76.9738134808873,,0.1207,PrivacySuppressed,0.3507692308
287,113537,Dell'Arte International School of Physical Theatre,Blue Lake,CA,www.dellarte.com/school,40.880924,-123.988808,0.0,1,,,,,,,,,,19.0,0.3158,0.1053,PrivacySuppressed,PrivacySuppressed,PrivacySuppressed,,,PrivacySuppressed,PrivacySuppressed
288,113573,College of the Desert,Palm Desert,CA,collegeofthedesert.edu,33.732108000000004,-116.388271,0.0,2,,,,,,,,15024.0,,10074.0,0.0,0.3832,PrivacySuppressed,PrivacySuppressed,PrivacySuppressed,,0.0714,30600,0.3164556962
289,113582,Design Institute of San Diego,San Diego,CA,www.disd.edu,32.880926,-117.167374,0.0,3,,,,,,,0.5,31825.0,,126.0,0.6503,0.3776,42485.5,42485.5,451.6636907178,0.4167,,36800,0.637037037
290,113634,Diablo Valley College,Pleasant Hill,CA,www.dvc.edu,37.968515999999994,-122.07314199999999,0.0,2,,,,,,,,12292.0,,17926.0,0.0127,0.1645,PrivacySuppressed,PrivacySuppressed,PrivacySuppressed,,0.2349,37600,0.5100671141
291,113698,Dominican University of California,San Rafael,CA,https://www.dominican.edu,37.981279,-122.512051,0.0,3,,,,,,,0.8843,61248.0,,1284.0,0.6829999999999999,0.3004,27000,27000,287.037216212134,0.6165,,55600,0.7153196622
292,113704,Dominican School of Philosophy & Theology,Berkeley,CA,https://www.dspt.edu,37.881099,-122.26461200000001,0.0,4,,,,,,,,,,,,,PrivacySuppressed,PrivacySuppressed,PrivacySuppressed,,,,
293,113856,East Los Angeles College,Monterey Park,CA,www.elac.edu/,34.040531,-118.148785,0.0,1,,,,,,,,15093.0,,29896.0,0.009000000000000001,0.2573,4500,4500,47.8395360353556,,0.1548,31300,0.3729433272
294,113980,El Camino Community College District,Torrance,CA,www.elcamino.edu,33.885228999999995,-118.32991299999999,0.0,2,,,,,,,,15936.0,,21663.0,0.0,0.295,PrivacySuppressed,PrivacySuppressed,PrivacySuppressed,,0.0873,31800,0.2452054795
295,114044,Elegance International,Hollywood,CA,ei.edu/,34.098445,-118.33811100000001,0.0,1,Make-Up Artist/Specialist,,,,,,,,30096.0,354.0,0.5314,0.5069,7600,7600,80.7956608597118,,0.6684,19100,0.4621212121
296,114114,Emperor's College of Traditional Oriental Medicine,Santa Monica,CA,www.emperors.edu,34.030438000000004,-118.485119,0.0,4,,,,,,,,,,,,,PrivacySuppressed,PrivacySuppressed,PrivacySuppressed,,,,PrivacySuppressed
297,114123,Empire College,Santa Rosa,CA,www.empcol.edu,38.468052,-122.72933700000002,0.0,1,Medical/Clinical Assistant,Pre-Law Studies,Legal Assistant/Paralegal,Information Technology,Administrative Assistant and Secretarial Science General,Accounting,,,26268.0,333.0,0.5786,0.5165,16100,16100,171.159228926494,,,33300,0.403539823
298,114266,Evergreen Valley College,San Jose,CA,www.evc.edu,37.30167,-121.76561000000001,0.0,2,,,,,,,,17876.0,,7780.0,0.0081,0.2768,9850,9850,104.715428877389,,0.0971,36600,0.5657370518
299,114354,FIDM-Fashion Institute of Design & Merchandising-Los Angeles,Los Angeles,CA,www.fidm.edu,34.044209,-118.25993000000001,0.0,2,,,,,,,0.3947,48893.0,,2367.0,0.5549,0.2869,14167,14167,150.609490447307,,,37200,0.62595226
300,114390,FIDM-Fashion Institute of Design & Merchandising-San Francisco,San Francisco,CA,WWW.FIDM.EDU,37.786353000000005,-122.406651,0.0,2,,,,,,,0.3687,46244.0,,279.0,0.6131,0.3036,14167,14167,150.609490447307,,,37200,0.62595226
301,114415,FIDM-Fashion Institute of Design & Merchandising-Orange County,Irvine,CA,www.FIDM.edu,33.691963,-117.852254,0.0,2,,,,,,,0.5669,42591.0,,71.0,0.6634,0.396,14167,14167,150.609490447307,,,37200,0.62595226
302,114433,Feather River Community College District,Quincy,CA,www.frc.edu,39.953101000000004,-120.97306699999999,0.0,2,,,,,,,,16299.0,,1346.0,0.1019,0.1681,10000,10000,106.310080078568,,,29100,0.3175965665
303,114460,Federico Beauty Institute,Sacramento,CA,federico.edu,38.64883,-121.49776100000001,0.0,1,Cosmetology/Cosmetologist General,Barbering/Barber,Aesthetician/Esthetician and Skin Care Specialist,,,,,,19002.0,253.0,0.6085,0.4764,6358,6358,67.5919489139536,,0.1125,25900,0.539083558
304,114549,Fielding Graduate University,Santa Barbara,CA,www.fielding.edu,34.42941,-119.717161,0.0,4,,,,,,,,,,,,,PrivacySuppressed,PrivacySuppressed,PrivacySuppressed,,,,PrivacySuppressed
305,114585,Five Branches University,Santa Cruz,CA,www.fivebranches.edu,36.964348,-121.998245,0.0,4,,,,,,,,,,,,,PrivacySuppressed,PrivacySuppressed,PrivacySuppressed,,,PrivacySuppressed,PrivacySuppressed
307,114637,Redondo Beach Beauty College,Redondo Beach,CA,RedondoBeachBeautyCollege.com,33.873098,-118.37213700000001,0.0,1,Cosmetology/Cosmetologist General,Aesthetician/Esthetician and Skin Care Specialist,Nail Technician/Specialist and Manicurist,Cosmetology Barber/Styling and Nail Instructor,,,,,15628.0,27.0,0.1556,0.6667,PrivacySuppressed,PrivacySuppressed,PrivacySuppressed,,1.0,,
308,114716,Foothill College,Los Altos Hills,CA,https://foothill.edu,37.361655,-122.12796399999999,0.0,2,,,,,,,,11726.0,,13873.0,0.0234,0.0732,9500,9500,100.994576074639,,,46500,0.4420289855
309,114734,Franciscan School of Theology,Oceanside,CA,www.fst.edu,33.232416,-117.320066,0.0,4,,,,,,,,,,,,,PrivacySuppressed,PrivacySuppressed,PrivacySuppressed,,,,
310,114761,Fredrick and Charles Beauty College,Eureka,CA,www.fandcbeauty.com,40.798885,-124.16498600000001,0.0,1,Cosmetology/Cosmetologist General,Barbering/Barber,Aesthetician/Esthetician and Skin Care Specialist,Cosmetology Barber/Styling and Nail Instructor,Nail Technician/Specialist and Manicurist,,,,17334.0,61.0,0.0,0.5773,PrivacySuppressed,PrivacySuppressed,PrivacySuppressed,,0.1714,17400,
311,114789,Fresno City College,Fresno,CA,www.fresnocitycollege.edu,36.768164,-119.79609599999999,0.0,2,,,,,,,,9848.0,,19322.0,0.0138,0.3475,3595,3595,38.2184737882452,,0.0619,28000,0.3426323319
312,114813,Fresno Pacific University,Fresno,CA,www.fresno.edu,36.726831,-119.735199,0.0,3,,,,,,,0.7239,38420.0,,2791.0,0.7190000000000001,0.5771,21500,21500,228.566672168921,0.5342,,43900,0.5337209302
313,114840,Fuller Theological Seminary,Pasadena,CA,www.fuller.edu,34.14778,-118.14026100000001,0.0,4,,,,,,,,,,,,,PrivacySuppressed,PrivacySuppressed,PrivacySuppressed,,,PrivacySuppressed,PrivacySuppressed
314,114859,Fullerton College,Fullerton,CA,www.fullcoll.edu,33.875514,-117.918255,0.0,2,,,,,,,,11056.0,,21969.0,0.049,0.2333,PrivacySuppressed,PrivacySuppressed,PrivacySuppressed,,0.0847,33400,0.3626373626
315,114938,Gavilan College,Gilroy,CA,https://www.gavilan.edu,36.972627,-121.569842,0.0,1,,,,,,,,11176.0,,5013.0,0.0055,0.2488,PrivacySuppressed,PrivacySuppressed,PrivacySuppressed,,0.0832,30400,0.3397260274
316,114947,Gemological Institute of America-Carlsbad,Carlsbad,CA,www.gia.edu/gem-education,33.131313,-117.31876499999998,0.0,1,Metal and Jewelry Arts,Metal and Jewelry Arts,Metal and Jewelry Arts,Metal and Jewelry Arts,Metal and Jewelry Arts,Metal and Jewelry Arts,,,35210.0,203.0,0.1652,0.1189,PrivacySuppressed,PrivacySuppressed,PrivacySuppressed,,0.8689,46500,0.8073394495
317,115001,Glendale Community College,Glendale,CA,www.glendale.edu,34.16745,-118.22766599999999,0.0,2,,,,,,,,9888.0,,12996.0,0.0209,0.3491,PrivacySuppressed,PrivacySuppressed,PrivacySuppressed,,0.0844,33200,0.5693950178
318,115010,Glendale Career College,Glendale,CA,www.success.edu,34.149771,-118.254719,0.0,1,Practical Nursing Vocational Nursing and Nursing Assistants Other,Surgical Technology/Technologist,Registered Nursing/Registered Nurse,Medical/Clinical Assistant,Sterile Processing Technology/Technician,Health and Physical Education/Fitness General,,,27476.0,507.0,0.75,0.7003,9500,9500,100.994576074639,,0.4048,28900,0.4149068323
319,115083,Golden Gate University-San Francisco,San Francisco,CA,www.ggu.edu,37.789374,-122.398969,0.0,3,,,,,,,,,,416.0,0.4078,0.2209,30124.5,30124.5,320.253800732682,,,71100,0.5590062112
320,115126,Golden West College,Huntington Beach,CA,www.goldenwestcollege.edu,33.732531,-118.002568,0.0,1,,,,,,,,10951.0,,10842.0,0.0175,0.245,6000,6000,63.7860480471409,,0.1118,33300,0.5031055901
321,115214,Graduate Theological Union,Berkeley,CA,WWW.GTU.EDU,37.87554,-122.261847,0.0,4,,,,,,,,,,,,,PrivacySuppressed,PrivacySuppressed,PrivacySuppressed,,,,
322,115296,Grossmont College,El Cajon,CA,www.grossmont.edu/,32.815246,-117.006277,0.0,2,,,,,,,,9956.0,,16304.0,0.0191,0.2482,4500,4500,47.8395360353556,,0.0675,34000,0.4390581717
323,115357,Salon Success Academy-Riverside,Riverside,CA,www.gotobeautyschool.com,33.943149,-117.391024,0.0,1,Cosmetology/Cosmetologist General,Barbering/Barber,Nail Technician/Specialist and Manicurist,,,,,,16268.0,61.0,0.6875,0.6786,10556,10556,112.220920530936,,0.05,19300,0.3617021277
324,115393,Hartnell College,Salinas,CA,www.hartnell.edu,36.675090999999995,-121.666054,0.0,2,,,,,,,,16171.0,,11218.0,0.0,0.2111,PrivacySuppressed,PrivacySuppressed,PrivacySuppressed,,0.0949,32100,0.2765957447
325,115409,Harvey Mudd College,Claremont,CA,https://www.hmc.edu,34.106515,-117.70983700000001,0.0,3,,,,,,,0.1542,71917.0,,844.0,0.4096,0.1277,23500,23500,249.828688184635,0.8608,,88800,PrivacySuppressed
326,115658,Hilltop Beauty School,Daly City,CA,www.hilltopbeautyschool.com,37.705502,-122.461467,0.0,1,Cosmetology/Cosmetologist General,Cosmetology Barber/Styling and Nail Instructor,Nail Technician/Specialist and Manicurist,,,,,,17699.0,110.0,0.0,0.7414,PrivacySuppressed,PrivacySuppressed,PrivacySuppressed,,0.1667,25400,
327,115728,Holy Names University,Oakland,CA,www.hnu.edu,37.802276,-122.187804,0.0,3,,,,,,,0.5256,53125.0,,589.0,0.6806,0.4772,26975,26975,286.771441011937,0.3226,,50800,0.5344202899
328,115746,Pacifica Graduate Institute,Carpinteria,CA,www.pacifica.edu,34.420881,-119.58041399999999,0.0,4,,,,,,,,,,,,,PrivacySuppressed,PrivacySuppressed,PrivacySuppressed,,,,PrivacySuppressed
329,115755,Humboldt State University,Arcata,CA,www.humboldt.edu,40.877481,-124.07829299999999,0.0,3,,,,,,,0.8183,23661.0,,7846.0,0.5313,0.5573,19002,19002,202.010414165295,0.1446,,36600,0.57681252
330,115773,Humphreys University-Stockton and Modesto Campuses,Stockton,CA,www.humphreys.edu,38.011489000000005,-121.31691799999999,0.0,3,,,,,,,,25575.0,,319.0,0.7041,0.6582,30902.5,30902.5,328.524724962795,0.3333,,28800,0.2561576355
331,115861,Imperial Valley College,Imperial,CA,www.imperial.edu,32.827209,-115.50356299999999,0.0,2,,,,,,,,10734.0,,7360.0,0.0,0.5297,PrivacySuppressed,PrivacySuppressed,PrivacySuppressed,,0.0771,25400,
332,115931,Institute for Business and Technology,Santa Clara,CA,https://ibt.edu/,37.368642,-121.96954099999999,0.0,1,Electrician,Heating Air Conditioning Ventilation and Refrigeration Maintenance Technology/Technician,Medical Office Assistant/Specialist,Clinical/Medical Laboratory Assistant,Diagnostic Medical Sonography/Sonographer and Ultrasound Technician,Health Information/Medical Records Technology/Technician,,,28682.0,587.0,0.4724,0.457,8050,8050,85.5796144632473,,0.63,33400,0.3538011696
333,116226,Interior Designers Institute,Newport Beach,CA,idi.edu,33.641393,-117.86572199999999,0.0,2,,,,,,,,,,208.0,0.5022,0.2358,23664,23664,251.572173497923,,,37800,0.6732673267
334,116350,Toni & Guy Hairdressing Academy-Santa Monica,Santa Monica,CA,toniguy.com/academy/santa_monica_beauty_school/default.aspx,34.017276,-118.494755,0.0,1,Cosmetology/Cosmetologist General,,,,,,,,20542.0,222.0,0.5711,0.4763,13581.5,13581.5,144.385035258707,,0.0804,PrivacySuppressed,0.4492440605
335,116439,Irvine Valley College,Irvine,CA,www.ivc.edu,33.675381,-117.77753899999999,0.0,1,,,,,,,,10988.0,,11631.0,0.011000000000000001,0.1704,5625,5625,59.7994200441946,,0.1971,36900,0.4137931034
336,116563,Bellus Academy-El Cajon,El Cajon,CA,www.bellusacademy.edu,32.794072,-116.94627,0.0,1,Master Aesthetician/Esthetician,Aesthetician/Esthetician and Skin Care Specialist,Facial Treatment Specialist/Facialist,Cosmetology/Cosmetologist General,Cosmetology and Related Personal Grooming Arts Other,Hair Styling/Stylist and Hair Design,,,29775.0,155.0,0.5846,0.625,7573,7573,80.5086236434996,,0.0213,22800,0.320610687
337,116712,John F. Kennedy University,Pleasant Hill,CA,https://www.jfku.edu,37.956616,-122.05476100000001,0.0,3,,,,,,,,,,96.0,0.6471,0.5441,25000,25000,265.77520019642,,,58000,0.4732142857
338,116846,American Jewish University,Los Angeles,CA,www.aju.edu,34.128153000000005,-118.47170600000001,0.0,3,,,,,,,0.8293,51803.0,,63.0,0.3385,0.4,PrivacySuppressed,PrivacySuppressed,PrivacySuppressed,0.2857,,PrivacySuppressed,0.5
339,117052,Reedley College,Reedley,CA,www.reedleycollege.edu,36.605428,-119.458555,0.0,2,,,,,,,,9526.0,,8624.0,0.0108,0.3348,PrivacySuppressed,PrivacySuppressed,PrivacySuppressed,,0.0921,26300,0.3683127572
340,117104,Life Pacific College,San Dimas,CA,www.lifepacific.edu,34.098704999999995,-117.829388,0.0,3,,,,,,,0.9669,26502.0,,489.0,0.6608,0.4894,19795,19795,210.440803515525,0.275,,32700,0.5172413793
342,117140,University of La Verne,La Verne,CA,www.laverne.edu/,34.100854999999996,-117.77326200000002,0.0,3,,,,,,,0.4754,52724.0,,5120.0,0.6333,0.4387,25000,25000,265.77520019642,0.5159,,49200,0.5224144017
343,117168,Laguna College of Art and Design,Laguna Beach,CA,www.lcad.edu,33.561448,-117.77256399999999,0.0,3,,,,,,,0.3346,45105.0,,636.0,0.544,0.3292,27000,27000,287.037216212134,0.2581,,32900,0.6129032258
344,117195,Lake Tahoe Community College,South Lake Tahoe,CA,www.ltcc.edu,38.926797,-119.972574,0.0,2,,,,,,,,12088.0,,1810.0,0.0,0.2125,PrivacySuppressed,PrivacySuppressed,PrivacySuppressed,,0.1818,25900,PrivacySuppressed
345,117238,Lancaster Beauty School,Lancaster,CA,lancasterbeautyschool.com,34.694914000000004,-118.147547,0.0,1,Cosmetology/Cosmetologist General,Barbering/Barber,Aesthetician/Esthetician and Skin Care Specialist,Nail Technician/Specialist and Manicurist,Cosmetology Barber/Styling and Nail Instructor,,,,16855.0,117.0,0.5963,0.7339,7643,7643,81.2527942040496,,0.5814,15900,0.2903225806
346,117247,Laney College,Oakland,CA,laney.edu/,37.797257,-122.26283000000001,0.0,2,,,,,,,,12877.0,,8817.0,0.0166,0.2241,12000,12000,127.572096094281,,0.1196,27700,0.2511415525
347,117274,Lassen Community College,Susanville,CA,www.lassencollege.edu/,40.432053,-120.633271,0.0,2,,,,,,,,15788.0,,2187.0,0.0229,0.1276,PrivacySuppressed,PrivacySuppressed,PrivacySuppressed,,0.1326,31300,0.3050847458
348,117520,Life Chiropractic College West,Hayward,CA,www.lifewest.edu,37.638099,-122.11761899999999,0.0,4,,,,,,,,,,,,,PrivacySuppressed,PrivacySuppressed,PrivacySuppressed,,,,
349,117557,Lincoln University,Oakland,CA,www.lincolnuca.edu,37.804788,-122.269745,0.0,3,,,,,,,,21195.0,,107.0,0.5105,0.2587,PrivacySuppressed,PrivacySuppressed,PrivacySuppressed,0.3333,,PrivacySuppressed,0.4651162791
350,117575,Southern California Seminary,El Cajon,CA,www.socalsem.edu,32.799614,-116.90546100000002,0.0,3,,,,,,,,32970.0,,51.0,1.0,0.3425,PrivacySuppressed,PrivacySuppressed,PrivacySuppressed,,,PrivacySuppressed,0.5526315789
351,117627,La Sierra University,Riverside,CA,https://lasierra.edu,33.910703999999996,-117.500054,0.0,3,,,,,,,0.4821,43320.0,,1929.0,0.6811,0.4834,30250,30250,321.587992237668,0.0037,,49500,0.5204678363
352,117636,Loma Linda University,Loma Linda,CA,www.llu.edu/index.html,34.051241,-117.260605,0.0,3,,,,,,,,,,1050.0,0.6344,0.3449,16000,16000,170.096128125709,,,80600,0.8243080626
353,117645,Long Beach City College,Long Beach,CA,www.lbcc.edu,33.833593,-118.13563300000001,0.0,2,,,,,,,,11049.0,,23312.0,0.0234,0.3363,PrivacySuppressed,PrivacySuppressed,PrivacySuppressed,,0.0534,28900,0.2462006079
354,117672,Southern California University of Health Sciences,Whittier,CA,www.scuhs.edu,33.922965999999995,-117.983401,0.0,1,,,,,,,,22472.0,,72.0,0.2035,0.1106,13690,13690,145.538499627559,,,PrivacySuppressed,0.4482758621
355,117690,Los Angeles Harbor College,Wilmington,CA,www.lahc.edu,33.784201,-118.28186000000001,0.0,2,,,,,,,,15062.0,,7354.0,0.0103,0.2706,4875,4875,51.8261640383019,,0.0808,32100,0.3962264151
356,117706,Los Angeles Pierce College,Woodland Hills,CA,www.piercecollege.edu,34.183949,-118.575071,0.0,2,,,,,,,,14892.0,,16439.0,0.0402,0.2997,10189.5,10189.5,108.324656096057,,0.11,34900,0.3279002876
357,117715,Los Angeles Southwest College,Los Angeles,CA,www.lasc.edu,33.929586,-118.304674,0.0,2,,,,,,,,12416.0,,5138.0,0.0573,0.3888,9000,9000,95.6790720707113,,0.0455,24800,0.1754385965
358,117724,Los Angeles Trade Technical College,Los Angeles,CA,www.lattc.edu,34.031907000000004,-118.269447,0.0,1,,,,,,,,12817.0,,11194.0,0.0346,0.3285,8000,8000,85.0480640628545,,0.1719,28800,0.291005291
359,117733,Los Angeles Valley College,Valley Glen,CA,www.lavc.edu,34.175165,-118.42173400000001,0.0,1,,,,,,,,15289.0,,14631.0,0.0175,0.3142,8700,8700,92.4897696683543,,0.0703,31900,0.391908976
360,117751,The Master's University and Seminary,Santa Clarita,CA,www.masters.edu,34.381755,-118.518193,0.0,3,,,,,,,0.6579999999999999,45045.0,,1171.0,0.5174,0.3023,20500,20500,217.935664161064,0.4541,,41700,0.7686567164
361,117788,Los Angeles City College,Los Angeles,CA,www.lacitycollege.edu/,34.087301000000004,-118.292169,0.0,1,,,,,,,,12383.0,,11540.0,0.0361,0.2814,12354,12354,131.335472929063,,0.0801,26700,0.3221360896
362,117803,Los Angeles County College of Nursing and Allied Health,Los Angeles,CA,dhs.lacounty.gov/wps/portal/dhs/conah/,34.062647,-118.21185200000001,0.0,2,,,,,,,,,,208.0,0.36,0.39,12065,12065,128.263111614792,,,86500,0.7184466019
363,117867,Los Angeles Mission College,Sylmar,CA,www.lamission.edu,34.314668,-118.4195,0.0,2,,,,,,,,13876.0,,8624.0,0.0191,0.276,9636,9636,102.440393163708,,0.0396,32600,0.4487951807
364,117894,Los Medanos College,Pittsburg,CA,www.losmedanos.edu/,38.006474,-121.86096699999999,0.0,2,,,,,,,,11427.0,,8110.0,0.0176,0.2806,9125,9125,97.0079480716934,,0.1173,34900,0.4639175258
366,117946,Loyola Marymount University,Los Angeles,CA,www.lmu.edu,33.97085,-118.41574399999999,0.0,3,,,,,,,0.5248,62119.0,,6257.0,0.3963,0.1746,22000,22000,233.88217617285,0.7011,,61300,0.7843866171
367,117955,Lu Ross Academy,Ventura,CA,www.lurossacademy.com/,34.278034000000005,-119.293952,0.0,1,Cosmetology/Cosmetologist General,Barbering/Barber,Aesthetician/Esthetician and Skin Care Specialist,Nail Technician/Specialist and Manicurist,Make-Up Artist/Specialist,Barbering/Barber,,,19774.0,217.0,0.6313,0.5605,7119.5,7119.5,75.6874615119366,,0.1149,PrivacySuppressed,0.4751552795
368,118134,Lyle's College of Beauty,Bakersfield,CA,lylescolleges.com,35.386539,-119.02387,0.0,1,Cosmetology/Cosmetologist General,Aesthetician/Esthetician and Skin Care Specialist,Cosmetology Barber/Styling and Nail Instructor,Nail Technician/Specialist and Manicurist,Cosmetology and Related Personal Grooming Arts Other,,,,20864.0,70.0,0.425,0.55,,,,,0.0,,
369,118143,Lyle's College of  Beauty,Fresno,CA,lylescolleges.com,36.836265000000004,-119.77416699999999,0.0,1,Cosmetology/Cosmetologist General,Aesthetician/Esthetician and Skin Care Specialist,Cosmetology Barber/Styling and Nail Instructor,Nail Technician/Specialist and Manicurist,,,,,22899.0,69.0,0.5294,0.6765,8556,8556,90.9589045152229,,0.2143,15500,0.4363636364
370,118161,Lytles Redwood Empire Beauty College Inc,Santa Rosa,CA,www.lytlesrebc.edu/,38.508385,-122.75777,0.0,1,Cosmetology/Cosmetologist General,Aesthetician/Esthetician and Skin Care Specialist,,,,,1.0,,20077.0,158.0,0.4375,0.3365,6333,6333,67.3261737137572,,0.09300000000000001,18700,0.7310344828
372,118198,MTI College,Sacramento,CA,www.mticollege.edu,38.661377,-121.342568,0.0,1,Phlebotomy Technician/Phlebotomist,Cosmetology/Cosmetologist General,Legal Assistant/Paralegal,Network and System Administration/Administrator,Medical/Clinical Assistant,Medical Insurance Specialist/Medical Biller,0.9423,,20438.0,781.0,0.6514,0.6327,9500,9500,100.994576074639,,0.2193,33300,0.4742436631
376,118347,College of Marin,Kentfield,CA,www.marin.edu,37.954896999999995,-122.549149,0.0,2,,,,,,,,17803.0,,4190.0,0.0098,0.1293,12155,12155,129.219902335499,,0.1133,33700,0.2746185853
377,118541,Marymount California University,Rancho Palos Verdes,CA,www.marymountcalifornia.edu/,33.734887,-118.333371,0.0,3,,,,,,,,50098.0,,929.0,0.5488,0.4066,25000,25000,265.77520019642,0.1326,,35900,0.4704301075
378,118684,Mendocino College,Ukiah,CA,www.mendocino.edu,39.188989,-123.22880900000001,0.0,2,,,,,,,,15151.0,,2983.0,0.034,0.2735,10500,10500,111.625584082496,,0.0553,26300,0.2335766423
379,118693,Menlo College,Atherton,CA,www.menlo.edu,37.453475,-122.190797,0.0,3,,,,,,,0.4299,57159.0,,726.0,0.2519,0.1067,21000,21000,223.251168164993,0.3873,,50900,0.6470588235
380,118718,Merced College,Merced,CA,www.mccd.edu,37.3353,-120.47646399999999,0.0,2,,,,,,,,15474.0,,9914.0,0.0,0.3994,PrivacySuppressed,PrivacySuppressed,PrivacySuppressed,,0.0747,27000,
381,118772,Merritt College,Oakland,CA,www.merritt.edu,37.789088,-122.16733500000001,0.0,1,,,,,,,,16019.0,,5524.0,0.0178,0.1861,10500,10500,111.625584082496,,0.0642,32600,0.2588652482
382,118888,Mills College,Oakland,CA,https://www.mills.edu,37.781425,-122.182294,0.0,3,,,,,,,0.871,61838.0,,757.0,0.7166,0.4715,24154,24154,256.781367421773,0.6284,,39900,0.6877192982
383,118912,MiraCosta College,Oceanside,CA,www.miracosta.edu,33.190483,-117.30260600000001,0.0,1,,,,,,,,8559.0,,13808.0,0.0263,0.2565,7000,7000,74.4170560549977,,,28900,0.4448398577
384,118930,Mission College,Santa Clara,CA,www.missioncollege.edu/,37.391935,-121.980783,0.0,2,,,,,,,,15181.0,,5993.0,0.0075,0.1849,PrivacySuppressed,PrivacySuppressed,PrivacySuppressed,,0.0986,34500,0.4694835681
385,118958,Modern Beauty Academy,Oxnard,CA,www.modernbeautyacademy.org,34.195384000000004,-119.181423,0.0,1,Cosmetology/Cosmetologist General,Nail Technician/Specialist and Manicurist,Barbering/Barber,Barbering/Barber,,,,,19063.0,40.0,0.375,0.5,PrivacySuppressed,PrivacySuppressed,PrivacySuppressed,,0.2174,19000,0.4912280702
387,118976,Modesto Junior College,Modesto,CA,www.mjc.edu,37.651056,-121.00979199999999,0.0,2,,,,,,,,14942.0,,16425.0,0.0,0.3751,PrivacySuppressed,PrivacySuppressed,PrivacySuppressed,,,30800,
388,118994,Moler Barber College,Oakland,CA,moler.org,37.827075,-122.26535200000001,0.0,1,Barbering/Barber,Barbering/Barber,Barbering/Barber,Barbering/Barber,Barbering/Barber,,,,17306.0,206.0,0.573,0.6568,9500,9500,100.994576074639,,0.0571,PrivacySuppressed,0.2465753425
389,119058,Middlebury Institute of International Studies at Monterey,Monterey,CA,www.middlebury.edu/institute/,36.599736,-121.897325,0.0,3,,,,,,,,,,13.0,0.5455,0.2727,13625,13625,144.847484107049,,,58200,0.8765743073
390,119067,Monterey Peninsula College,Monterey,CA,www.mpc.edu,36.590558,-121.88493100000001,0.0,2,,,,,,,,12373.0,,6856.0,0.0174,0.1858,PrivacySuppressed,PrivacySuppressed,PrivacySuppressed,,0.0727,31900,0.3175074184
391,119137,Moorpark College,Moorpark,CA,www.moorparkcollege.edu/index.shtml,34.301146,-118.834528,0.0,2,,,,,,,,8800.0,,13378.0,0.0163,0.1864,9500,9500,100.994576074639,,0.1481,38600,0.4186440678
392,119164,Mt San Antonio College,Walnut,CA,www.mtsac.edu,34.047764,-117.84662900000001,0.0,2,,,,,,,,10109.0,,26865.0,0.0076,0.3331,4500,4500,47.8395360353556,,0.1209,35000,0.4119850187
393,119173,Mount Saint Mary's University,Los Angeles,CA,https://www.msmu.edu,34.085315,-118.482879,0.0,3,,,,,,,0.8121,52180.0,,2575.0,0.8506,0.5719,26000,26000,276.406208204277,0.4559,,53200,0.5858895706
394,119216,Mt San Jacinto Community College District,San Jacinto,CA,www.msjc.edu,33.806748,-116.97116899999999,0.0,2,,,,,,,,11710.0,,14620.0,0.0,0.3523,PrivacySuppressed,PrivacySuppressed,PrivacySuppressed,,0.0848,28800,0.3653846154
395,119270,Musicians Institute,Hollywood,CA,www.mi.edu,34.101265000000005,-118.33758200000001,0.0,1,,,,,,,0.8004,40458.0,,924.0,0.3037,0.2197,PrivacySuppressed,PrivacySuppressed,PrivacySuppressed,0.7,,30100,0.5433579336
396,119331,Napa Valley College,Napa,CA,www.napavalley.edu,38.274081,-122.274381,0.0,2,,,,,,,,17453.0,,5237.0,0.012,0.2074,10000,10000,106.310080078568,,0.1134,37000,0.4472361809
397,119553,National Holistic Institute,Emeryville,CA,www.nhi.edu,37.841898,-122.287672,0.0,1,Massage Therapy/Therapeutic Massage,Massage Therapy/Therapeutic Massage,Massage Therapy/Therapeutic Massage,,,,,,29218.0,954.0,0.8041,0.6145,9500,9500,100.994576074639,,0.7037,26200,0.5344970906
398,119605,National University,La Jolla,CA,www.nu.edu,32.909894,-117.243026,0.0,3,,,,,,,,27247.0,,7360.0,0.1058,0.355,28244,28244,300.262190173907,0.2037,,59400,0.4979396736
399,119678,Naval Postgraduate School,Monterey,CA,https://www.nps.edu,36.597159000000005,-121.874248,0.0,4,,,,,,,,,,,,,,,,,,,
400,119775,Newschool of Architecture and Design,San Diego,CA,www.newschoolarch.edu,32.71331,-117.153305,0.0,3,,,,,,,0.9912,41660.0,,432.0,0.5725,0.4855,35500,35500,377.400784278917,0.1111,,49400,0.4797979798
401,119845,Newberry School of Beauty,Granada Hills,CA,www.newberryschoolofbeauty.net,34.256683,-118.499693,0.0,1,Cosmetology/Cosmetologist General,Barbering/Barber,Aesthetician/Esthetician and Skin Care Specialist,,,,,,16306.0,134.0,0.4348,0.413,6333,6333,67.3261737137572,,0.3286,24300,0.5656565657
402,119951,North Adrian's College of Beauty Inc,Modesto,CA,www.adrians.edu,37.677778,-120.99275300000001,0.0,1,Cosmetology/Cosmetologist General,Aesthetician/Esthetician and Skin Care Specialist,Nail Technician/Specialist and Manicurist,Cosmetology Barber/Styling and Nail Instructor,Barbering/Barber,,,,21144.0,177.0,0.3986,0.4615,11850,11850,125.977444893103,,0.1729,17400,0.2430769231
403,120069,North-West College-Pomona,Pomona,CA,www.north-westcollege.edu,34.062043,-117.751227,0.0,1,Medical/Clinical Assistant,Licensed Practical/Vocational Nurse Training,Dental Assisting/Assistant,Pharmacy Technician/Assistant,Medical Insurance Specialist/Medical Biller,Massage Therapy/Therapeutic Massage,,,30924.0,302.0,0.9008,0.9229,9500,9500,100.994576074639,,0.2358,27900,0.3725296443
404,120078,North-West College-West Covina,West Covina,CA,www.north-westcollege.edu,34.072071,-117.949583,0.0,1,Practical Nursing Vocational Nursing and Nursing Assistants Other,Medical/Clinical Assistant,Medical Insurance Specialist/Medical Biller,Dental Assisting/Assistant,Pharmacy Technician/Assistant,Optometric Technician/Assistant,0.6788,,28886.0,635.0,0.7233,0.7129,9310,9310,98.9746845531469,,0.2355,26600,0.4816650149
405,120087,North-West College-Van Nuys,Van Nuys,CA,www.north-westcollege.edu,34.189496999999996,-118.45018400000001,0.0,1,Practical Nursing Vocational Nursing and Nursing Assistants Other,Medical/Clinical Assistant,Medical Insurance Specialist/Medical Biller,Pharmacy Technician/Assistant,Massage Therapy/Therapeutic Massage,Dental Assisting/Assistant,,,30226.0,166.0,0.9286,0.8393,9500,9500,100.994576074639,,0.2743,25800,0.408496732
406,120184,Notre Dame de Namur University,Belmont,CA,www.ndnu.edu,37.517111,-122.28479399999999,0.0,3,,,,,,,0.9362,51716.0,,924.0,0.7047,0.4226,25000,25000,265.77520019642,0.3466,,56400,0.6161616162
407,120254,Occidental College,Los Angeles,CA,https://www.oxy.edu,34.127124,-118.210908,0.0,3,,,,,,,0.4179,69442.0,,1958.0,0.449,0.1991,23215,23215,246.798850902396,0.797,,50600,0.8759541985
408,120290,Ohlone College,Fremont,CA,www.ohlone.edu,37.52773,-121.916339,0.0,2,,,,,,,,16933.0,,8026.0,0.008,0.1445,PrivacySuppressed,PrivacySuppressed,PrivacySuppressed,,0.1741,38900,0.3984375
409,120342,Orange Coast College,Costa Mesa,CA,www.orangecoastcollege.edu/,33.669270000000004,-117.90908600000002,0.0,1,,,,,,,,10764.0,,20968.0,0.0262,0.2352,6500,6500,69.1015520510693,,0.1385,38100,0.4910714286
410,120403,Otis College of Art and Design,Los Angeles,CA,www.otis.edu,33.956607,-118.416615,0.0,3,,,,,,,0.9125,60426.0,,1056.0,0.5396,0.3842,27000,27000,287.037216212134,0.4703,,44900,0.6936416185
411,120421,Oxnard College,Oxnard,CA,www.oxnardcollege.edu,34.166104,-119.157604,0.0,2,,,,,,,,9000.0,,6809.0,0.0,0.3138,PrivacySuppressed,PrivacySuppressed,PrivacySuppressed,,0.076,31000,PrivacySuppressed
412,120537,Hope International University,Fullerton,CA,www.hiu.edu,33.87616,-117.88573000000001,0.0,3,,,,,,,0.2837,42742.0,,727.0,0.6972,0.4318,25624.5,25624.5,272.414264697327,0.4771,,36000,0.5446428571
413,120661,Concorde Career College-San Diego,San Diego,CA,https://www.concorde.edu/campus/san-diego-california,32.702814000000004,-117.102845,0.0,1,Medical/Clinical Assistant,Practical Nursing Vocational Nursing and Nursing Assistants Other,Dental Assisting/Assistant,Dental Hygiene/Hygienist,Physical Therapy Technician/Assistant,Surgical Technology/Technologist,0.8773,,25239.0,581.0,0.6011,0.5568,9500,9500,100.994576074639,,0.4062,28800,0.3953488372
414,120698,Palo Alto University,Palo Alto,CA,www.paloaltou.edu,37.382216,-122.18743700000002,0.0,3,,,,,,,,,,125.0,0.6306,0.5096,18324,18324,194.802590735968,,,PrivacySuppressed,0.6708860759
415,120768,Pacific Oaks College,Pasadena,CA,www.pacificoaks.edu,34.153382,-118.151323,0.0,3,,,,,,,,,,467.0,0.8238,0.6034,22545,22545,239.676075537131,,,42800,0.4872521246
416,120795,Pacific School of Religion,Berkeley,CA,www.psr.edu,37.87669,-122.263155,0.0,4,,,,,,,,,,,,,PrivacySuppressed,PrivacySuppressed,PrivacySuppressed,,,,PrivacySuppressed
417,120838,Pacific States University,Los Angeles,CA,www.psuca.edu,34.061315,-118.29840800000001,0.0,3,,,,,,,,,,8.0,0.0,0.0323,PrivacySuppressed,PrivacySuppressed,PrivacySuppressed,0.0,,PrivacySuppressed,PrivacySuppressed
418,120865,Pacific Union College,Angwin,CA,www.puc.edu,38.570584999999994,-122.440308,0.0,3,,,,,,,0.5021,41331.0,,1181.0,0.726,0.4298,29251,29251,310.967615237819,0.2481,,51700,0.5951219512
419,120883,University of the Pacific,Stockton,CA,www.pacific.edu,37.981424,-121.312301,0.0,3,,,,,,,0.6487,58718.0,,3542.0,0.5248,0.3569,24245,24245,257.748789150488,0.4745,,71700,0.7276096356
420,120953,Palo Verde College,Blythe,CA,www.paloverde.edu,33.661538,-114.651698,0.0,1,,,,,,,,14514.0,,3496.0,0.0,0.0575,PrivacySuppressed,PrivacySuppressed,PrivacySuppressed,,0.1084,22900,
421,120971,Palomar College,San Marcos,CA,www2.palomar.edu/,33.149483000000004,-117.183978,0.0,1,,,,,,,,9909.0,,21320.0,0.0088,0.1614,6949,6949,73.874874646597,,0.0896,34400,0.3440860215
422,121044,Pasadena City College,Pasadena,CA,pasadena.edu/,34.144552000000004,-118.118196,0.0,2,,,,,,,,13623.0,,25202.0,0.008,0.3025,4500,4500,47.8395360353556,,0.139,33800,0.38424821
423,121150,Pepperdine University,Malibu,CA,www.pepperdine.edu/,34.037786,-118.707077,0.0,3,,,,,,,0.3985,68352.0,,3594.0,0.3874,0.1711,25843,25843,274.737139947043,0.7674,,65500,0.744732577
424,121257,Pitzer College,Claremont,CA,https://www.pitzer.edu,34.104107,-117.706675,0.0,3,,,,,,,0.162,68192.0,,1074.0,0.3578,0.1563,14044.5,14044.5,149.307191966345,0.7554,,48700,0.8376068376
425,121275,Platt College-San Diego,San Diego,CA,www.platt.edu,32.763729999999995,-117.063483,0.0,2,,,,,,,,42402.0,,178.0,0.6188,0.5495,21796,21796,231.713450539247,,,37000,0.421641791
426,121309,Point Loma Nazarene University,San Diego,CA,www.pointloma.edu,32.718391,-117.25026499999998,0.0,3,,,,,,,0.7629,48040.0,,3092.0,0.5834,0.2837,22883.5,22883.5,243.274671747791,0.6372,,50900,0.7935299715
427,121345,Pomona College,Claremont,CA,www.pomona.edu,34.099027,-117.714556,0.0,3,,,,,,,0.0836,67357.0,,1567.0,0.1267,0.1936,13400,13400,142.455507305281,0.8883,,58100,0.8510638298
428,121363,Porterville College,Porterville,CA,www.portervillecollege.edu,36.049256,-119.01436799999999,0.0,2,,,,,,,,8127.0,,3304.0,0.0,0.4656,PrivacySuppressed,PrivacySuppressed,PrivacySuppressed,,0.0624,27700,
429,121433,Professional Institute of Beauty,El Monte,CA,www.pib.edu,34.075561,-118.039028,0.0,1,Cosmetology/Cosmetologist General,Cosmetology Barber/Styling and Nail Instructor,Nail Technician/Specialist and Manicurist,,,,,,18665.0,88.0,0.5433,0.7559,PrivacySuppressed,PrivacySuppressed,PrivacySuppressed,,0.2727,14900,0.6268656716
430,121619,Santa Ana College,Santa Ana,CA,www.sac.edu,33.759309,-117.88755800000001,0.0,2,,,,,,,,10383.0,,25885.0,0.0055,0.1262,6000,6000,63.7860480471409,,,33800,0.4611650485
431,121628,Pardee RAND Graduate School,Santa Monica,CA,www.prgs.edu,34.00973,-118.490655,0.0,4,,,,,,,,,,,,,PrivacySuppressed,PrivacySuppressed,PrivacySuppressed,,,,
432,121637,Shasta School of Cosmetology,Redding,CA,www.shastaschoolofcosmetology.com,40.597114000000005,-122.387248,0.0,1,Cosmetology/Cosmetologist General,Aesthetician/Esthetician and Skin Care Specialist,Cosmetology Barber/Styling and Nail Instructor,Nail Technician/Specialist and Manicurist,,,,,13793.0,71.0,0.0,0.5179,PrivacySuppressed,PrivacySuppressed,PrivacySuppressed,,0.3333,,
433,121691,University of Redlands,Redlands,CA,www.redlands.edu,34.064218,-117.163218,0.0,3,,,,,,,0.7496,63170.0,,3042.0,0.5795,0.278,27000,27000,287.037216212134,0.7125,,55000,0.6832579186
434,121707,College of the Redwoods,Eureka,CA,www.redwoods.edu,40.698427,-124.19529299999999,0.0,2,,,,,,,,12249.0,,3877.0,0.0649,0.3607,7950,7950,84.5165136624617,,0.0615,28100,0.3594864479
435,121859,Salon Success Academy-Upland,Upland,CA,www.gotobeautyschool.com,34.108247,-117.63178300000001,0.0,1,Cosmetology/Cosmetologist General,Barbering/Barber,Nail Technician/Specialist and Manicurist,,,,,,17343.0,162.0,0.6789,0.6455,7178,7178,76.3093754803962,,0.3111,PrivacySuppressed,0.4520547945
436,121868,Salon Success Academy-Corona,Corona,CA,www.gotobeautyschool.com,33.847649,-117.53563799999999,0.0,1,Cosmetology/Cosmetologist General,Aesthetician/Esthetician and Skin Care Specialist,,,,,,,16098.0,79.0,0.7338,0.7266,10556,10556,112.220920530936,,0.2874,PrivacySuppressed,0.4431818182
437,121886,Rio Hondo College,Whittier,CA,www.riohondo.edu,34.019821,-118.033506,0.0,2,,,,,,,,11702.0,,17807.0,0.0041,0.2382,PrivacySuppressed,PrivacySuppressed,PrivacySuppressed,,,35100,0.3438395415
438,121901,Riverside City College,Riverside,CA,www.rcc.edu/riverside/,33.970918,-117.384323,0.0,2,,,,,,,,12523.0,,18234.0,0.0171,0.3101,7500,7500,79.7325600589261,,0.0926,31600,0.4141531323
440,121992,Rosemead Beauty School,Rosemead,CA,rosemeadbeauty.com/home/,34.080756,-118.082793,0.0,1,Massage Therapy/Therapeutic Massage,Aesthetician/Esthetician and Skin Care Specialist,Nail Technician/Specialist and Manicurist,Cosmetology/Cosmetologist General,,,,,10253.0,335.0,0.0,0.3802,PrivacySuppressed,PrivacySuppressed,PrivacySuppressed,,0.0725,12600,
441,122117,Dongguk University-Los Angeles,Los Angeles,CA,www.dula.edu,34.06597,-118.289523,0.0,4,,,,,,,,,,0.0,,,PrivacySuppressed,PrivacySuppressed,PrivacySuppressed,,,PrivacySuppressed,PrivacySuppressed
442,122180,Sacramento City College,Sacramento,CA,www.scc.losrios.edu/,38.541096,-121.49113899999999,0.0,2,,,,,,,,12587.0,,19408.0,0.037000000000000005,0.2419,11762.5,11762.5,125.047231692415,,0.0711,34300,0.3094282849
443,122205,Saddleback College,Mission Viejo,CA,www.saddleback.edu,33.553346000000005,-117.66558400000001,0.0,1,,,,,,,,14031.0,,17843.0,0.0156,0.1435,7250,7250,77.0748080569619,,0.1518,38700,0.4533106961
444,122296,Samuel Merritt University,Oakland,CA,www.samuelmerritt.edu,37.82029,-122.26633100000001,0.0,3,,,,,,,,,,821.0,0.6016,0.1667,18750,18750,199.331400147315,,,111100,0.9169230769
